     2.12           OBSERVATION DATA    M: Mixed            RINEX VERSION / TYPE
RtkConv Qt demo5 b34                    20240621 141903 UTC PGM / RUN BY / DATE 
format: RINEX                                               COMMENT             
log: /home/hades/Desktop/Projects/Data/SkyDelSim/Log1/SkydelCOMMENT             
SKYDEL                                                      MARKER NAME         
Unknown                                                     MARKER NUMBER       
                                                            OBSERVER / AGENCY   
Unknown             Unknown                                 REC # / TYPE / VERS 
Unknown             Unknown                                 ANT # / TYPE        
        0.0000        0.0000        0.0000                  APPROX POSITION XYZ 
        0.0000        0.0000        0.0000                  ANTENNA: DELTA H/E/N
     1     1                                                WAVELENGTH FACT L1/2
     6    CA    LA    DA    CC    LC    DC                  # / TYPES OF OBSERV 
  2024    01    02    10    00   00.5000000     GPS         TIME OF FIRST OBS   
  2024    01    02    10    00   59.9000000     GPS         TIME OF LAST OBS    
                                                            END OF HEADER       
 24 01 02 10 00 00.5000000  0  7G32G23G18G27G10G24G15
  22909922.449 7 120392455.05217      2605.077    20082292.506 7  82233630.70917
      -625.357  
  20702875.816 7 108794346.71617       579.301    21012803.902 7  86043919.32517
       288.851  
  20082292.506 7 105533159.40917      -802.541    22909922.449 7  93812302.63817
      2029.930  
  23523028.273 7 123614347.90417       178.980    23523028.273 7  96322868.49717
       139.465  
  22432705.149 7 117884661.21217      1917.514    22432705.149 7  91858177.56817
      1494.166  
  21012803.902 7 110423029.80017       370.692    21550430.212 7  88245409.19117
     -2157.498  
  21550430.212 7 113248275.12817     -2768.790    20702875.816 7  84774815.62317
       451.404  
 24 01 02 10 00 00.6000000  0  7G32G23G18G27G10G24G15
  22909872.879 7 120392194.559 7      2604.788    20082307.779 7  82233693.250 7
      -625.480  
  20702864.790 7 108794288.775 7       579.529    21012796.849 7  86043890.443 7
       288.787  
  20082307.779 7 105533239.671 7      -802.699    22909872.879 7  93812099.656 7
      2029.705  
  23523024.866 7 123614329.999 7       179.120    23523024.866 7  96322854.545 7
       139.574  
  22432668.657 7 117884469.450 7      1917.728    22432668.657 7  91858028.143 7
      1494.334  
  21012796.849 7 110422992.735 7       370.610    21550482.898 7  88245624.930 7
     -2157.293  
  21550482.898 7 113248551.994 7     -2768.526    20702864.790 7  84774770.474 7
       451.581  
 24 01 02 10 00 00.7000000  0  7G32G23G18G27G10G24G15
  22909823.314 7 120391934.094 7      2604.502    20082323.056 7  82233755.805 7
      -625.603  
  20702853.760 7 108794230.811 7       579.756    21012789.797 7  86043861.568 7
       288.723  
  20082323.056 7 105533319.949 7      -802.857    22909823.314 7  93811896.697 7
      2029.482  
  23523021.456 7 123614312.080 7       179.258    23523021.456 7  96322840.582 7
       139.682  
  22432632.162 7 117884277.666 7      1917.941    22432632.162 7  91857878.701 7
      1494.500  
  21012789.797 7 110422955.678 7       370.528    21550535.579 7  88245840.649 7
     -2157.089  
  21550535.579 7 113248828.833 7     -2768.264    20702853.760 7  84774725.307 7
       451.758  
 24 01 02 10 00 00.8000000  0  7G32G23G18G27G10G24G15
  22909773.755 7 120391673.658 7      2604.217    20082338.335 7  82233818.371 7
      -625.726  
  20702842.726 7 108794172.824 7       579.981    21012782.747 7  86043832.699 7
       288.659  
  20082338.335 7 105533400.243 7      -803.014    22909773.755 7  93811693.759 7
      2029.260  
  23523018.044 7 123614294.147 7       179.395    23523018.044 7  96322826.608 7
       139.788  
  22432595.663 7 117884085.861 7      1918.153    22432595.663 7  91857729.243 7
      1494.665  
  21012782.747 7 110422918.630 7       370.446    21550588.255 7  88246056.348 7
     -2156.886  
  21550588.255 7 113249105.647 7     -2768.004    20702842.726 7  84774680.122 7
       451.933  
 24 01 02 10 00 00.9000000  0  7G32G23G18G27G10G24G15
  22909724.201 7 120391413.250 7      2603.935    20082353.617 7  82233880.950 7
      -625.848  
  20702831.687 7 108794114.815 7       580.203    21012775.699 7  86043803.836 7
       288.596  
  20082353.617 7 105533480.552 7      -803.171    22909724.201 7  93811490.844 7
      2029.040  
  23523014.629 7 123614276.201 7       179.531    23523014.629 7  96322812.624 7
       139.894  
  22432559.160 7 117883894.036 7      1918.363    22432559.160 7  91857579.768 7
      1494.828  
  21012775.699 7 110422881.589 7       370.364    21550640.926 7  88246272.026 7
     -2156.686  
  21550640.926 7 113249382.434 7     -2767.746    20702831.687 7  84774634.920 7
       452.107  
 24 01 02 10 00 01.0000000  0  7G32G23G18G27G10G24G15
  22909674.652 7 120391152.871 7      2603.654    20082368.903 7  82233943.541 7
      -625.969  
  20702820.644 7 108794056.783 7       580.425    21012768.652 7  86043774.979 7
       288.532  
  20082368.903 7 105533560.877 7      -803.327    22909674.652 7  93811287.951 7
      2028.821  
  23523011.211 7 123614258.241 7       179.665    23523011.211 7  96322798.630 7
       139.998  
  22432522.653 7 117883702.189 7      1918.572    22432522.653 7  91857430.277 7
      1494.991  
  21012768.652 7 110422844.557 7       370.283    21550693.592 7  88246487.685 7
     -2156.486  
  21550693.592 7 113249659.196 7     -2767.491    20702820.644 7  84774589.701 7
       452.279  
 24 01 02 10 00 01.1000000  0  7G32G23G18G27G10G24G15
  22909625.109 7 120390892.520 7      2603.375    20082384.191 7  82234006.143 7
      -626.090  
  20702809.597 7 108793998.730 7       580.644    21012761.606 7  86043746.129 7
       288.469  
  20082384.191 7 105533641.217 7      -803.482    22909625.109 7  93811085.080 7
      2028.604  
  23523007.791 7 123614240.268 7       179.797    23523007.791 7  96322784.625 7
       140.102  
  22432486.141 7 117883510.321 7      1918.779    22432486.141 7  91857280.770 7
      1495.152  
  21012761.606 7 110422807.533 7       370.201    21550746.253 7  88246703.324 7
     -2156.289  
  21550746.253 7 113249935.932 7     -2767.237    20702809.597 7  84774544.465 7
       452.450  
 24 01 02 10 00 01.2000000  0  7G32G23G18G27G10G24G15
  22909575.571 7 120390632.196 7      2603.098    20082399.482 7  82234068.758 7
      -626.210  
  20702798.545 7 108793940.654 7       580.862    21012754.562 7  86043717.286 7
       288.405  
  20082399.482 7 105533721.573 7      -803.637    22909575.571 7  93810882.231 7
      2028.388  
  23523004.368 7 123614222.282 7       179.929    23523004.368 7  96322770.609 7
       140.204  
  22432449.626 7 117883318.433 7      1918.984    22432449.626 7  91857131.247 7
      1495.312  
  21012754.562 7 110422770.517 7       370.120    21550798.909 7  88246918.943 7
     -2156.092  
  21550798.909 7 113250212.643 7     -2766.985    20702798.545 7  84774499.211 7
       452.620  
 24 01 02 10 00 01.3000000  0  7G32G23G18G27G10G24G15
  22909526.038 7 120390371.900 7      2602.822    20082414.776 7  82234131.386 7
      -626.330  
  20702787.490 7 108793882.557 7       581.078    21012747.520 7  86043688.448 7
       288.342  
  20082414.776 7 105533801.945 7      -803.791    22909526.038 7  93810679.403 7
      2028.173  
  23523000.943 7 123614204.283 7       180.058    23523000.943 7  96322756.584 7
       140.305  
  22432413.107 7 117883126.525 7      1919.188    22432413.107 7  91856981.707 7
      1495.471  
  21012747.520 7 110422733.509 7       370.039    21550851.561 7  88247134.542 7
     -2155.898  
  21550851.561 7 113250489.329 7     -2766.735    20702787.490 7  84774453.941 7
       452.788  
 24 01 02 10 00 01.4000000  0  7G32G23G18G27G10G24G15
  22909476.511 7 120390111.631 7      2602.549    20082430.074 7  82234194.025 7
      -626.450  
  20702776.430 7 108793824.439 7       581.292    21012740.479 7  86043659.617 7
       288.279  
  20082430.074 7 105533882.331 7      -803.944    22909476.511 7  93810476.596 7
      2027.960  
  23522997.515 7 123614186.270 7       180.187    23522997.515 7  96322742.548 7
       140.405  
  22432376.584 7 117882934.596 7      1919.391    22432376.584 7  91856832.152 7
      1495.629  
  21012740.479 7 110422696.509 7       369.957    21550904.208 7  88247350.122 7
     -2155.704  
  21550904.208 7 113250765.990 7     -2766.487    20702776.430 7  84774408.654 7
       452.955  
 24 01 02 10 00 01.5000000  0  7G32G23G18G27G10G24G15
  22909426.989 7 120389851.390 7      2602.277    20082445.374 7  82234256.675 7
      -626.569  
  20702765.367 7 108793766.299 7       581.505    21012733.440 7  86043630.793 7
       288.215  
  20082445.374 7 105533962.734 7      -804.096    22909426.989 7  93810273.810 7
      2027.748  
  23522994.085 7 123614168.245 7       180.314    23522994.085 7  96322728.503 7
       140.504  
  22432340.058 7 117882742.647 7      1919.592    22432340.058 7  91856682.582 7
      1495.786  
  21012733.440 7 110422659.517 7       369.876    21550956.850 7  88247565.683 7
     -2155.513  
  21550956.850 7 113251042.627 7     -2766.241    20702765.367 7  84774363.350 7
       453.121  
 24 01 02 10 00 01.6000000  0  7G32G23G18G27G10G24G15
  22909377.472 7 120389591.176 7      2602.007    20082460.676 7  82234319.338 7
      -626.687  
  20702754.299 7 108793708.138 7       581.716    21012726.402 7  86043601.974 7
       288.152  
  20082460.676 7 105534043.151 7      -804.248    22909377.472 7  93810071.046 7
      2027.538  
  23522990.653 7 123614150.207 7       180.440    23522990.653 7  96322714.447 7
       140.602  
  22432303.527 7 117882550.677 7      1919.791    22432303.527 7  91856532.995 7
      1495.941  
  21012726.402 7 110422622.534 7       369.795    21551009.487 7  88247781.225 7
     -2155.323  
  21551009.487 7 113251319.239 7     -2765.997    20702754.299 7  84774318.030 7
       453.285  
 24 01 02 10 00 01.7000000  0  7G32G23G18G27G10G24G15
  22909327.960 7 120389330.989 7      2601.738    20082475.982 7  82234382.013 7
      -626.805  
  20702743.227 7 108793649.956 7       581.925    21012719.366 7  86043573.162 7
       288.089  
  20082475.982 7 105534123.583 7      -804.400    22909327.960 7  93809868.303 7
      2027.329  
  23522987.218 7 123614132.157 7       180.564    23522987.218 7  96322700.382 7
       140.699  
  22432266.993 7 117882358.688 7      1919.989    22432266.993 7  91856383.394 7
      1496.096  
  21012719.366 7 110422585.558 7       369.714    21551062.120 7  88247996.748 7
     -2155.134  
  21551062.120 7 113251595.826 7     -2765.755    20702743.227 7  84774272.693 7
       453.448  
 24 01 02 10 00 01.8000000  0  7G32G23G18G27G10G24G15
  22909278.453 7 120389070.828 7      2601.472    20082491.291 7  82234444.699 7
      -626.922  
  20702732.152 7 108793591.753 7       582.133    21012712.331 7  86043544.356 7
       288.026  
  20082491.291 7 105534204.031 7      -804.550    22909278.453 7  93809665.580 7
      2027.121  
  23522983.781 7 123614114.095 7       180.687    23522983.781 7  96322686.308 7
       140.795  
  22432230.455 7 117882166.680 7      1920.186    22432230.455 7  91856233.776 7
      1496.249  
  21012712.331 7 110422548.591 7       369.634    21551114.748 7  88248212.252 7
     -2154.947  
  21551114.748 7 113251872.390 7     -2765.515    20702732.152 7  84774227.340 7
       453.610  
 24 01 02 10 00 01.9000000  0  7G32G23G18G27G10G24G15
  22909228.951 7 120388810.694 7      2601.207    20082506.602 7  82234507.397 7
      -627.039  
  20702721.072 7 108793533.529 7       582.339    21012705.298 7  86043515.557 7
       287.963  
  20082506.602 7 105534284.493 7      -804.700    22909228.951 7  93809462.879 7
      2026.915  
  23522980.341 7 123614096.020 7       180.809    23522980.341 7  96322672.223 7
       140.890  
  22432193.913 7 117881974.651 7      1920.381    22432193.913 7  91856084.144 7
      1496.401  
  21012705.298 7 110422511.631 7       369.553    21551167.372 7  88248427.737 7
     -2154.761  
  21551167.372 7 113252148.929 7     -2765.277    20702721.072 7  84774181.971 7
       453.771  
 24 01 02 10 00 02.0000000  0  7G32G23G18G27G10G24G15
  22909179.454 7 120388550.587 7      2600.944    20082521.917 7  82234570.107 7
      -627.156  
  20702709.989 7 108793475.285 7       582.544    21012698.266 7  86043486.764 7
       287.901  
  20082521.917 7 105534364.971 7      -804.850    22909179.454 7  93809260.197 7
      2026.709  
  23522976.899 7 123614077.933 7       180.929    23522976.899 7  96322658.130 7
       140.984  
  22432157.368 7 117881782.603 7      1920.575    22432157.368 7  91855934.496 7
      1496.552  
  21012698.266 7 110422474.680 7       369.472    21551219.991 7  88248643.204 7
     -2154.577  
  21551219.991 7 113252425.445 7     -2765.040    20702709.989 7  84774136.586 7
       453.930  
 24 01 02 10 00 02.1000000  0  7G32G23G18G27G10G24G15
  22909129.962 7 120388290.506 7      2600.682    20082537.234 7  82234632.828 7
      -627.272  
  20702698.901 7 108793417.021 7       582.746    21012691.236 7  86043457.977 7
       287.838  
  20082537.234 7 105534445.463 7      -804.999    22909129.962 7  93809057.537 7
      2026.506  
  23522973.455 7 123614059.834 7       181.048    23522973.455 7  96322644.027 7
       141.077  
  22432120.818 7 117881590.536 7      1920.767    22432120.818 7  91855784.833 7
      1496.702  
  21012691.236 7 110422437.737 7       369.392    21551272.606 7  88248858.653 7
     -2154.394  
  21551272.606 7 113252701.938 7     -2764.806    20702698.901 7  84774091.185 7
       454.088  
 24 01 02 10 00 02.2000000  0  7G32G23G18G27G10G24G15
  22909080.475 7 120388030.450 7      2600.422    20082552.554 7  82234695.561 7
      -627.387  
  20702687.810 7 108793358.736 7       582.948    21012684.208 7  86043429.196 7
       287.775  
  20082552.554 7 105534525.970 7      -805.147    22909080.475 7  93808854.896 7
      2026.303  
  23522970.009 7 123614041.723 7       181.166    23522970.009 7  96322629.914 7
       141.168  
  22432084.266 7 117881398.450 7      1920.958    22432084.266 7  91855635.156 7
      1496.851  
  21012684.208 7 110422400.802 7       369.311    21551325.216 7  88249074.083 7
     -2154.213  
  21551325.216 7 113252978.406 7     -2764.573    20702687.810 7  84774045.768 7
       454.245  
 24 01 02 10 00 02.3000000  0  7G32G23G18G27G10G24G15
  22909030.993 7 120387770.421 7      2600.164    20082567.877 7  82234758.306 7
      -627.502  
  20702676.715 7 108793300.431 7       583.147    21012677.181 7  86043400.422 7
       287.713  
  20082567.877 7 105534606.493 7      -805.295    22909030.993 7  93808652.276 7
      2026.102  
  23522966.560 7 123614023.601 7       181.283    23522966.560 7  96322615.793 7
       141.259  
  22432047.709 7 117881206.345 7      1921.148    22432047.709 7  91855485.463 7
      1496.998  
  21012677.181 7 110422363.875 7       369.231    21551377.822 7  88249289.495 7
     -2154.033  
  21551377.822 7 113253254.852 7     -2764.342    20702676.715 7  84774000.336 7
       454.401  
 24 01 02 10 00 02.4000000  0  7G32G23G18G27G10G24G15
  22908981.516 7 120387510.417 7      2599.908    20082583.202 7  82234821.062 7
      -627.617  
  20702665.616 7 108793242.106 7       583.346    21012670.155 7  86043371.654 7
       287.650  
  20082583.202 7 105534687.029 7      -805.442    22908981.516 7  93808449.676 7
      2025.902  
  23522963.110 7 123614005.467 7       181.398    23522963.110 7  96322601.663 7
       141.349  
  22432011.149 7 117881014.220 7      1921.336    22432011.149 7  91855335.756 7
      1497.145  
  21012670.155 7 110422326.956 7       369.151    21551430.424 7  88249504.889 7
     -2153.854  
  21551430.424 7 113253531.275 7     -2764.113    20702665.616 7  84773954.888 7
       454.555  
 24 01 02 10 00 02.5000000  0  7G32G23G18G27G10G24G15
  22908932.044 7 120387250.439 7      2599.653    20082598.531 7  82234883.829 7
      -627.731  
  20702654.514 7 108793183.762 7       583.542    21012663.131 7  86043342.892 7
       287.588  
  20082598.531 7 105534767.581 7      -805.588    22908932.044 7  93808247.096 7
      2025.704  
  23522959.657 7 123613987.321 7       181.512    23522959.657 7  96322587.523 7
       141.438  
  22431974.586 7 117880822.077 7      1921.523    22431974.586 7  91855186.034 7
      1497.291  
  21012663.131 7 110422290.044 7       369.071    21551483.021 7  88249720.266 7
     -2153.677  
  21551483.021 7 113253807.675 7     -2763.885    20702654.514 7  84773909.425 7
       454.708  
 24 01 02 10 00 02.6000000  0  7G32G23G18G27G10G24G15
  22908882.577 7 120386990.487 7      2599.400    20082613.862 7  82234946.608 7
      -627.845  
  20702643.407 7 108793125.398 7       583.737    21012656.109 7  86043314.136 7
       287.525  
  20082613.862 7 105534848.147 7      -805.734    22908882.577 7  93808044.535 7
      2025.506  
  23522956.202 7 123613969.165 7       181.624    23522956.202 7  96322573.375 7
       141.525  
  22431938.018 7 117880629.916 7      1921.709    22431938.018 7  91855036.298 7
      1497.435  
  21012656.109 7 110422253.141 7       368.991    21551535.614 7  88249935.625 7
     -2153.501  
  21551535.614 7 113254084.052 7     -2763.660    20702643.407 7  84773863.947 7
       454.860  
 24 01 02 10 00 02.7000000  0  7G32G23G18G27G10G24G15
  22908833.114 7 120386730.559 7      2599.148    20082629.196 7  82235009.398 7
      -627.958  
  20702632.297 7 108793067.015 7       583.931    21012649.088 7  86043285.387 7
       287.463  
  20082629.196 7 105534928.728 7      -805.879    22908833.114 7  93807841.994 7
      2025.310  
  23522952.744 7 123613950.997 7       181.736    23522952.744 7  96322559.218 7
       141.612  
  22431901.448 7 117880437.736 7      1921.893    22431901.448 7  91854886.547 7
      1497.579  
  21012649.088 7 110422216.246 7       368.911    21551588.202 7  88250150.966 7
     -2153.327  
  21551588.202 7 113254360.407 7     -2763.436    20702632.297 7  84773818.453 7
       455.011  
 24 01 02 10 00 02.8000000  0  7G32G23G18G27G10G24G15
  22908783.657 7 120386470.657 7      2598.898    20082644.533 7  82235072.200 7
      -628.071  
  20702621.184 7 108793008.612 7       584.123    21012642.069 7  86043256.644 7
       287.401  
  20082644.533 7 105535009.323 7      -806.024    22908783.657 7  93807639.473 7
      2025.115  
  23522949.285 7 123613932.817 7       181.846    23522949.285 7  96322545.053 7
       141.698  
  22431864.874 7 117880245.537 7      1922.075    22431864.874 7  91854736.782 7
      1497.721  
  21012642.069 7 110422179.359 7       368.831    21551640.787 7  88250366.290 7
     -2153.153  
  21551640.787 7 113254636.739 7     -2763.214    20702621.184 7  84773772.944 7
       455.161  
 24 01 02 10 00 02.9000000  0  7G32G23G18G27G10G24G15
  22908734.204 7 120386210.780 7      2598.650    20082659.872 7  82235135.012 7
      -628.183  
  20702610.066 7 108792950.190 7       584.313    21012635.051 7  86043227.907 7
       287.338  
  20082659.872 7 105535089.932 7      -806.168    22908734.204 7  93807436.971 7
      2024.922  
  23522945.823 7 123613914.627 7       181.955    23522945.823 7  96322530.879 7
       141.783  
  22431828.296 7 117880053.321 7      1922.257    22431828.296 7  91854587.003 7
      1497.863  
  21012635.051 7 110422142.480 7       368.751    21551693.367 7  88250581.597 7
     -2152.982  
  21551693.367 7 113254913.050 7     -2762.993    20702610.066 7  84773727.421 7
       455.309  
 24 01 02 10 00 03.0000000  0  7G32G23G18G27G10G24G15
  22908684.755 7 120385950.927 7      2598.403    20082675.215 7  82235197.836 7
      -628.295  
  20702598.945 7 108792891.749 7       584.502    21012628.034 7  86043199.176 7
       287.276  
  20082675.215 7 105535170.556 7      -806.311    22908684.755 7  93807234.489 7
      2024.730  
  23522942.360 7 123613896.427 7       182.062    23522942.360 7  96322516.696 7
       141.867  
  22431791.715 7 117879861.086 7      1922.437    22431791.715 7  91854437.210 7
      1498.003  
  21012628.034 7 110422105.609 7       368.671    21551745.943 7  88250796.887 7
     -2152.811  
  21551745.943 7 113255189.338 7     -2762.775    20702598.945 7  84773681.883 7
       455.456  
 24 01 02 10 00 03.1000000  0  7G32G23G18G27G10G24G15
  22908635.312 7 120385691.099 7      2598.158    20082690.560 7  82235260.671 7
      -628.406  
  20702587.821 7 108792833.290 7       584.690    21012621.020 7  86043170.451 7
       287.214  
  20082690.560 7 105535251.195 7      -806.454    22908635.312 7  93807032.025 7
      2024.539  
  23522938.894 7 123613878.215 7       182.169    23522938.894 7  96322502.505 7
       141.950  
  22431755.131 7 117879668.833 7      1922.616    22431755.131 7  91854287.403 7
      1498.142  
  21012621.020 7 110422068.746 7       368.592    21551798.514 7  88251012.159 7
     -2152.642  
  21551798.514 7 113255465.604 7     -2762.558    20702587.821 7  84773636.330 7
       455.602  
 24 01 02 10 00 03.2000000  0  7G32G23G18G27G10G24G15
  22908585.873 7 120385431.295 7      2597.914    20082705.907 7  82235323.517 7
      -628.517  
  20702576.693 7 108792774.811 7       584.876    21012614.006 7  86043141.733 7
       287.152  
  20082705.907 7 105535331.847 7      -806.597    22908585.873 7  93806829.581 7
      2024.349  
  23522935.427 7 123613859.993 7       182.274    23522935.427 7  96322488.306 7
       142.032  
  22431718.543 7 117879476.563 7      1922.793    22431718.543 7  91854137.581 7
      1498.281  
  21012614.006 7 110422031.891 7       368.512    21551851.082 7  88251227.415 7
     -2152.475  
  21551851.082 7 113255741.850 7     -2762.343    20702576.693 7  84773590.762 7
       455.747  
 24 01 02 10 00 03.3000000  0  7G32G23G18G27G10G24G15
  22908536.438 7 120385171.516 7      2597.672    20082721.258 7  82235386.375 7
      -628.627  
  20702565.561 7 108792716.315 7       585.060    21012606.995 7  86043113.021 7
       287.090  
  20082721.258 7 105535412.514 7      -806.738    22908536.438 7  93806627.155 7
      2024.160  
  23522931.957 7 123613841.760 7       182.378    23522931.957 7  96322474.099 7
       142.113  
  22431681.951 7 117879284.275 7      1922.970    22431681.951 7  91853987.746 7
      1498.418  
  21012606.995 7 110421995.044 7       368.433    21551903.646 7  88251442.654 7
     -2152.308  
  21551903.646 7 113256018.073 7     -2762.129    20702565.561 7  84773545.180 7
       455.891  
 24 01 02 10 00 03.4000000  0  7G32G23G18G27G10G24G15
  22908487.009 7 120384911.761 7      2597.431    20082736.611 7  82235449.243 7
      -628.737  
  20702554.426 7 108792657.800 7       585.243    21012599.984 7  86043084.315 7
       287.029  
  20082736.611 7 105535493.195 7      -806.880    22908487.009 7  93806424.749 7
      2023.973  
  23522928.486 7 123613823.517 7       182.481    23522928.486 7  96322459.884 7
       142.193  
  22431645.357 7 117879091.969 7      1923.144    22431645.357 7  91853837.898 7
      1498.554  
  21012599.984 7 110421958.204 7       368.353    21551956.205 7  88251657.877 7
     -2152.143  
  21551956.205 7 113256294.275 7     -2761.917    20702554.426 7  84773499.584 7
       456.034  
 24 01 02 10 00 03.5000000  0  7G32G23G18G27G10G24G15
  22908437.583 7 120384652.030 7      2597.192    20082751.966 7  82235512.122 7
      -628.847  
  20702543.288 7 108792599.266 7       585.425    21012592.975 7  86043055.615 7
       286.967  
  20082751.966 7 105535573.890 7      -807.020    22908437.583 7  93806222.361 7
      2023.786  
  23522925.012 7 123613805.264 7       182.583    23522925.012 7  96322445.660 7
       142.272  
  22431608.759 7 117878899.646 7      1923.318    22431608.759 7  91853688.036 7
      1498.689  
  21012592.975 7 110421921.373 7       368.274    21552008.761 7  88251873.083 7
     -2151.980  
  21552008.761 7 113256570.457 7     -2761.707    20702543.288 7  84773453.974 7
       456.175  
 24 01 02 10 00 03.6000000  0  7G32G23G18G27G10G24G15
  22908388.163 7 120384392.322 7      2596.955    20082767.325 7  82235575.012 7
      -628.956  
  20702532.146 7 108792540.715 7       585.605    21012585.968 7  86043026.922 7
       286.905  
  20082767.325 7 105535654.599 7      -807.161    22908388.163 7  93806019.992 7
      2023.601  
  23522921.537 7 123613787.001 7       182.683    23522921.537 7  96322431.429 7
       142.351  
  22431572.158 7 117878707.305 7      1923.491    22431572.158 7  91853538.160 7
      1498.824  
  21012585.968 7 110421884.549 7       368.195    21552061.312 7  88252088.273 7
     -2151.817  
  21552061.312 7 113256846.617 7     -2761.499    20702532.146 7  84773408.349 7
       456.315  
 24 01 02 10 00 03.7000000  0  7G32G23G18G27G10G24G15
  22908338.746 7 120384132.639 7      2596.719    20082782.686 7  82235637.913 7
      -629.065  
  20702521.000 7 108792482.145 7       585.784    21012578.962 7  86042998.234 7
       286.844  
  20082782.686 7 105535735.322 7      -807.300    22908338.746 7  93805817.641 7
      2023.417  
  23522918.060 7 123613768.727 7       182.783    23522918.060 7  96322417.190 7
       142.428  
  22431535.553 7 117878514.948 7      1923.662    22431535.553 7  91853388.271 7
      1498.957  
  21012578.962 7 110421847.734 7       368.116    21552113.860 7  88252303.447 7
     -2151.656  
  21552113.860 7 113257122.757 7     -2761.292    20702521.000 7  84773362.711 7
       456.455  
 24 01 02 10 00 03.8000000  0  7G32G23G18G27G10G24G15
  22908289.335 7 120383872.979 7      2596.484    20082798.050 7  82235700.825 7
      -629.173  
  20702509.851 7 108792423.558 7       585.961    21012571.958 7  86042969.553 7
       286.782  
  20082798.050 7 105535816.059 7      -807.439    22908289.335 7  93805615.308 7
      2023.235  
  23522914.580 7 123613750.444 7       182.881    23522914.580 7  96322402.944 7
       142.504  
  22431498.946 7 117878322.573 7      1923.832    22431498.946 7  91853238.369 7
      1499.090  
  21012571.958 7 110421810.926 7       368.037    21552166.404 7  88252518.604 7
     -2151.496  
  21552166.404 7 113257398.875 7     -2761.087    20702509.851 7  84773317.058 7
       456.593  
 24 01 02 10 00 03.9000000  0  7G32G23G18G27G10G24G15
  22908239.928 7 120383613.342 7      2596.251    20082813.416 7  82235763.748 7
      -629.281  
  20702498.699 7 108792364.953 7       586.137    21012564.955 7  86042940.878 7
       286.720  
  20082813.416 7 105535896.810 7      -807.578    22908239.928 7  93805412.994 7
      2023.053  
  23522911.099 7 123613732.151 7       182.978    23522911.099 7  96322388.689 7
       142.580  
  22431462.335 7 117878130.182 7      1924.000    22431462.335 7  91853088.453 7
      1499.221  
  21012564.955 7 110421774.126 7       367.958    21552218.943 7  88252733.746 7
     -2151.338  
  21552218.943 7 113257674.974 7     -2760.883    20702498.699 7  84773271.392 7
       456.730  
 24 01 02 10 00 04.0000000  0  7G32G23G18G27G10G24G15
  22908190.525 7 120383353.728 7      2596.020    20082828.785 7  82235826.681 7
      -629.389  
  20702487.544 7 108792306.331 7       586.311    21012557.954 7  86042912.209 7
       286.659  
  20082828.785 7 105535977.574 7      -807.716    22908190.525 7  93805210.697 7
      2022.873  
  23522907.617 7 123613713.849 7       183.074    23522907.617 7  96322374.428 7
       142.655  
  22431425.721 7 117877937.773 7      1924.168    22431425.721 7  91852938.524 7
      1499.351  
  21012557.954 7 110421737.335 7       367.879    21552271.479 7  88252948.872 7
     -2151.180  
  21552271.479 7 113257951.052 7     -2760.681    20702487.544 7  84773225.712 7
       456.866  
 24 01 02 10 00 04.1000000  0  7G32G23G18G27G10G24G15
  22908141.126 7 120383094.138 7      2595.790    20082844.157 7  82235889.626 7
      -629.496  
  20702476.385 7 108792247.691 7       586.484    21012550.954 7  86042883.546 7
       286.598  
  20082844.157 7 105536058.353 7      -807.853    22908141.126 7  93805008.419 7
      2022.693  
  23522904.132 7 123613695.537 7       183.168    23522904.132 7  96322360.158 7
       142.729  
  22431389.103 7 117877745.348 7      1924.334    22431389.103 7  91852788.583 7
      1499.481  
  21012550.954 7 110421700.551 7       367.800    21552324.011 7  88253163.982 7
     -2151.024  
  21552324.011 7 113258227.110 7     -2760.481    20702476.385 7  84773180.019 7
       457.001  
 24 01 02 10 00 04.2000000  0  7G32G23G18G27G10G24G15
  22908091.732 7 120382834.570 7      2595.561    20082859.531 7  82235952.581 7
      -629.603  
  20702465.223 7 108792189.034 7       586.656    21012543.956 7  86042854.889 7
       286.536  
  20082859.531 7 105536139.145 7      -807.990    22908091.732 7  93804806.159 7
      2022.515  
  23522900.645 7 123613677.215 7       183.262    23522900.645 7  96322345.882 7
       142.801  
  22431352.483 7 117877552.906 7      1924.499    22431352.483 7  91852638.628 7
      1499.609  
  21012543.956 7 110421663.774 7       367.722    21552376.540 7  88253379.077 7
     -2150.869  
  21552376.540 7 113258503.148 7     -2760.282    20702465.223 7  84773134.312 7
       457.135  
 24 01 02 10 00 04.3000000  0  7G32G23G18G27G10G24G15
  22908042.343 7 120382575.025 7      2595.334    20082874.908 7  82236015.546 7
      -629.709  
  20702454.058 7 108792130.360 7       586.827    21012536.959 7  86042826.239 7
       286.475  
  20082874.908 7 105536219.951 7      -808.126    22908042.343 7  93804603.916 7
      2022.338  
  23522897.157 7 123613658.884 7       183.354    23522897.157 7  96322331.598 7
       142.874  
  22431315.859 7 117877360.448 7      1924.662    22431315.859 7  91852488.661 7
      1499.737  
  21012536.959 7 110421627.006 7       367.643    21552429.064 7  88253594.156 7
     -2150.716  
  21552429.064 7 113258779.167 7     -2760.085    20702454.058 7  84773088.592 7
       457.267  
 24 01 02 10 00 04.4000000  0  7G32G23G18G27G10G24G15
  22907992.957 7 120382315.503 7      2595.108    20082890.287 7  82236078.522 7
      -629.815  
  20702442.889 7 108792071.669 7       586.996    21012529.964 7  86042797.594 7
       286.414  
  20082890.287 7 105536300.770 7      -808.262    22907992.957 7  93804401.691 7
      2022.162  
  23522893.667 7 123613640.544 7       183.446    23522893.667 7  96322317.307 7
       142.945  
  22431279.233 7 117877167.974 7      1924.825    22431279.233 7  91852338.681 7
      1499.864  
  21012529.964 7 110421590.246 7       367.564    21552481.585 7  88253809.220 7
     -2150.563  
  21552481.585 7 113259055.166 7     -2759.890    20702442.889 7  84773042.859 7
       457.399  
 24 01 02 10 00 04.5000000  0  7G32G23G18G27G10G24G15
  22907943.576 7 120382056.004 7      2594.884    20082905.669 7  82236141.509 7
      -629.920  
  20702431.717 7 108792012.961 7       587.163    21012522.970 7  86042768.956 7
       286.353  
  20082905.669 7 105536381.603 7      -808.397    22907943.576 7  93804199.483 7
      2021.988  
  23522890.175 7 123613622.195 7       183.536    23522890.175 7  96322303.009 7
       143.015  
  22431242.603 7 117876975.483 7      1924.986    22431242.603 7  91852188.688 7
      1499.989  
  21012522.970 7 110421553.493 7       367.486    21552534.102 7  88254024.269 7
     -2150.412  
  21552534.102 7 113259331.145 7     -2759.696    20702431.717 7  84772997.112 7
       457.530  
 24 01 02 10 00 04.6000000  0  7G32G23G18G27G10G24G15
  22907894.199 7 120381796.527 7      2594.661    20082921.054 7  82236204.506 7
      -630.025  
  20702420.542 7 108791954.236 7       587.330    21012515.978 7  86042740.324 7
       286.292  
  20082921.054 7 105536462.450 7      -808.532    22907894.199 7  93803997.293 7
      2021.814  
  23522886.682 7 123613603.837 7       183.625    23522886.682 7  96322288.704 7
       143.085  
  22431205.970 7 117876782.977 7      1925.147    22431205.970 7  91852038.683 7
      1500.114  
  21012515.978 7 110421516.749 7       367.408    21552586.616 7  88254239.302 7
     -2150.262  
  21552586.616 7 113259607.105 7     -2759.503    20702420.542 7  84772951.353 7
       457.659  
 24 01 02 10 00 04.7000000  0  7G32G23G18G27G10G24G15
  22907844.826 7 120381537.072 7      2594.440    20082936.441 7  82236267.514 7
      -630.130  
  20702409.364 7 108791895.495 7       587.495    21012508.987 7  86042711.698 7
       286.231  
  20082936.441 7 105536543.310 7      -808.666    22907844.826 7  93803795.121 7
      2021.641  
  23522883.187 7 123613585.470 7       183.713    23522883.187 7  96322274.392 7
       143.153  
  22431169.334 7 117876590.454 7      1925.305    22431169.334 7  91851888.666 7
      1500.238  
  21012508.987 7 110421480.012 7       367.329    21552639.125 7  88254454.321 7
     -2150.113  
  21552639.125 7 113259883.045 7     -2759.312    20702409.364 7  84772905.580 7
       457.788  
 24 01 02 10 00 04.8000000  0  7G32G23G18G27G10G24G15
  22907795.458 7 120381277.639 7      2594.220    20082951.831 7  82236330.532 7
      -630.234  
  20702398.183 7 108791836.737 7       587.658    21012501.998 7  86042683.078 7
       286.170  
  20082951.831 7 105536624.183 7      -808.800    22907795.458 7  93803592.965 7
      2021.470  
  23522879.690 7 123613567.095 7       183.800    23522879.690 7  96322260.074 7
       143.221  
  22431132.696 7 117876397.916 7      1925.463    22431132.696 7  91851738.636 7
      1500.361  
  21012501.998 7 110421443.283 7       367.251    21552691.632 7  88254669.325 7
     -2149.966  
  21552691.632 7 113260158.967 7     -2759.123    20702398.183 7  84772859.795 7
       457.916  
 24 01 02 10 00 04.9000000  0  7G32G23G18G27G10G24G15
  22907746.094 7 120381018.228 7      2594.001    20082967.223 7  82236393.561 7
      -630.338  
  20702386.999 7 108791777.963 7       587.821    21012495.010 7  86042654.464 7
       286.109  
  20082967.223 7 105536705.070 7      -808.934    22907746.094 7  93803390.827 7
      2021.299  
  23522876.192 7 123613548.710 7       183.886    23522876.192 7  96322245.748 7
       143.288  
  22431096.054 7 117876205.361 7      1925.620    22431096.054 7  91851588.593 7
      1500.483  
  21012495.010 7 110421406.562 7       367.173    21552744.134 7  88254884.314 7
     -2149.819  
  21552744.134 7 113260434.870 7     -2758.935    20702386.999 7  84772813.997 7
       458.042  
 24 01 02 10 00 05.0000000  0  7G32G23G18G27G10G24G15
  22907696.734 7 120380758.838 7      2593.784    20082982.618 7  82236456.600 7
      -630.441  
  20702375.811 7 108791719.173 7       587.982    21012488.024 7  86042625.856 7
       286.048  
  20082982.618 7 105536785.970 7      -809.066    22907696.734 7  93803188.705 7
      2021.130  
  23522872.692 7 123613530.317 7       183.971    23522872.692 7  96322231.416 7
       143.354  
  22431059.409 7 117876012.792 7      1925.776    22431059.409 7  91851438.539 7
      1500.604  
  21012488.024 7 110421369.848 7       367.095    21552796.633 7  88255099.289 7
     -2149.674  
  21552796.633 7 113260710.754 7     -2758.748    20702375.811 7  84772768.187 7
       458.168  
 24 01 02 10 00 05.1000000  0  7G32G23G18G27G10G24G15
  22907647.378 7 120380499.471 7      2593.568    20082998.015 7  82236519.649 7
      -630.544  
  20702364.621 7 108791660.367 7       588.141    21012481.039 7  86042597.254 7
       285.987  
  20082998.015 7 105536866.883 7      -809.199    22907647.378 7  93802986.601 7
      2020.962  
  23522869.190 7 123613511.916 7       184.055    23522869.190 7  96322217.078 7
       143.419  
  22431022.761 7 117875820.206 7      1925.930    22431022.761 7  91851288.473 7
      1500.725  
  21012481.039 7 110421333.143 7       367.017    21552849.129 7  88255314.249 7
     -2149.530  
  21552849.129 7 113260986.620 7     -2758.563    20702364.621 7  84772722.364 7
       458.292  
 24 01 02 10 00 05.2000000  0  7G32G23G18G27G10G24G15
  22907598.026 7 120380240.125 7      2593.353    20083013.415 7  82236582.709 7
      -630.647  
  20702353.428 7 108791601.545 7       588.300    21012474.056 7  86042568.658 7
       285.926  
  20083013.415 7 105536947.809 7      -809.330    22907598.026 7  93802784.513 7
      2020.795  
  23522865.687 7 123613493.507 7       184.138    23522865.687 7  96322202.732 7
       143.484  
  22430986.111 7 117875627.606 7      1926.083    22430986.111 7  91851138.394 7
      1500.844  
  21012474.056 7 110421296.445 7       366.939    21552901.621 7  88255529.195 7
     -2149.387  
  21552901.621 7 113261262.467 7     -2758.380    20702353.428 7  84772676.528 7
       458.416  
 24 01 02 10 00 05.3000000  0  7G32G23G18G27G10G24G15
  22907548.678 7 120379980.800 7      2593.140    20083028.817 7  82236645.778 7
      -630.749  
  20702342.231 7 108791542.707 7       588.457    21012467.074 7  86042540.069 7
       285.866  
  20083028.817 7 105537028.749 7      -809.462    22907548.678 7  93802582.442 7
      2020.628  
  23522862.182 7 123613475.089 7       184.219    23522862.182 7  96322188.381 7
       143.547  
  22430949.457 7 117875434.990 7      1926.235    22430949.457 7  91850988.304 7
      1500.963  
  21012467.074 7 110421259.755 7       366.861    21552954.109 7  88255744.126 7
     -2149.245  
  21552954.109 7 113261538.296 7     -2758.198    20702342.231 7  84772630.681 7
       458.538  
 24 01 02 10 00 05.4000000  0  7G32G23G18G27G10G24G15
  22907499.334 7 120379721.497 7      2592.928    20083044.222 7  82236708.859 7
      -630.851  
  20702331.032 7 108791483.853 7       588.613    21012460.093 7  86042511.485 7
       285.805  
  20083044.222 7 105537109.702 7      -809.593    22907499.334 7  93802380.387 7
      2020.463  
  23522858.676 7 123613456.663 7       184.300    23522858.676 7  96322174.023 7
       143.610  
  22430912.800 7 117875242.359 7      1926.386    22430912.800 7  91850838.202 7
      1501.080  
  21012460.093 7 110421223.073 7       366.783    21553006.594 7  88255959.044 7
     -2149.104  
  21553006.594 7 113261814.106 7     -2758.017    20702331.032 7  84772584.821 7
       458.660  
 24 01 02 10 00 05.5000000  0  7G32G23G18G27G10G24G15
  22907449.994 7 120379462.214 7      2592.717    20083059.629 7  82236771.949 7
      -630.953  
  20702319.829 7 108791424.984 7       588.768    21012453.114 7  86042482.908 7
       285.745  
  20083059.629 7 105537190.668 7      -809.723    22907449.994 7  93802178.349 7
      2020.299  
  23522855.168 7 123613438.229 7       184.380    23522855.168 7  96322159.659 7
       143.672  
  22430876.141 7 117875049.713 7      1926.536    22430876.141 7  91850688.088 7
      1501.197  
  21012453.114 7 110421186.398 7       366.705    21553059.076 7  88256173.947 7
     -2148.965  
  21553059.076 7 113262089.899 7     -2757.838    20702319.829 7  84772538.949 7
       458.780  
 24 01 02 10 00 05.6000000  0  7G32G23G18G27G10G24G15
  22907400.659 7 120379202.953 7      2592.508    20083075.039 7  82236835.049 7
      -631.054  
  20702308.624 7 108791366.100 7       588.921    21012446.137 7  86042454.336 7
       285.684  
  20083075.039 7 105537271.646 7      -809.853    22907400.659 7  93801976.327 7
      2020.136  
  23522851.658 7 123613419.787 7       184.458    23522851.658 7  96322145.288 7
       143.734  
  22430839.479 7 117874857.051 7      1926.685    22430839.479 7  91850537.962 7
      1501.313  
  21012446.137 7 110421149.732 7       366.628    21553111.554 7  88256388.837 7
     -2148.826  
  21553111.554 7 113262365.674 7     -2757.661    20702308.624 7  84772493.065 7
       458.900  
 24 01 02 10 00 05.7000000  0  7G32G23G18G27G10G24G15
  22907351.327 7 120378943.713 7      2592.300    20083090.451 7  82236898.160 7
      -631.155  
  20702297.416 7 108791307.200 7       589.073    21012439.161 7  86042425.771 7
       285.624  
  20083090.451 7 105537352.638 7      -809.982    22907351.327 7  93801774.322 7
      2019.974  
  23522848.148 7 123613401.337 7       184.536    23522848.148 7  96322130.912 7
       143.794  
  22430802.814 7 117874664.376 7      1926.833    22430802.814 7  91850387.825 7
      1501.428  
  21012439.161 7 110421113.073 7       366.550    21553164.029 7  88256603.713 7
     -2148.689  
  21553164.029 7 113262641.431 7     -2757.484    20702297.416 7  84772447.169 7
       459.018  
 24 01 02 10 00 05.8000000  0  7G32G23G18G27G10G24G15
  22907301.999 7 120378684.493 7      2592.093    20083105.866 7  82236961.280 7
      -631.255  
  20702286.205 7 108791248.285 7       589.224    21012432.187 7  86042397.212 7
       285.563  
  20083105.866 7 105537433.643 7      -810.111    22907301.999 7  93801572.332 7
      2019.813  
  23522844.635 7 123613382.880 7       184.612    23522844.635 7  96322116.530 7
       143.854  
  22430766.146 7 117874471.685 7      1926.980    22430766.146 7  91850237.677 7
      1501.542  
  21012432.187 7 110421076.422 7       366.473    21553216.500 7  88256818.575 7
     -2148.553  
  21553216.500 7 113262917.171 7     -2757.310    20702286.205 7  84772401.261 7
       459.136  
 24 01 02 10 00 05.9000000  0  7G32G23G18G27G10G24G15
  22907252.675 7 120378425.294 7      2591.888    20083121.283 7  82237024.411 7
      -631.355  
  20702274.991 7 108791189.355 7       589.374    21012425.214 7  86042368.658 7
       285.503  
  20083121.283 7 105537514.660 7      -810.239    22907252.675 7  93801370.359 7
      2019.653  
  23522841.121 7 123613364.415 7       184.688    23522841.121 7  96322102.141 7
       143.913  
  22430729.476 7 117874278.980 7      1927.125    22430729.476 7  91850087.517 7
      1501.656  
  21012425.214 7 110421039.778 7       366.395    21553268.969 7  88257033.423 7
     -2148.418  
  21553268.969 7 113263192.893 7     -2757.136    20702274.991 7  84772355.342 7
       459.253  
 24 01 02 10 00 06.0000000  0  7G32G23G18G27G10G24G15
  22907203.355 7 120378166.116 7      2591.684    20083136.702 7  82237087.551 7
      -631.455  
  20702263.774 7 108791130.410 7       589.523    21012418.242 7  86042340.111 7
       285.443  
  20083136.702 7 105537595.691 7      -810.367    22907203.355 7  93801168.402 7
      2019.494  
  23522837.606 7 123613345.942 7       184.763    23522837.606 7  96322087.747 7
       143.971  
  22430692.802 7 117874086.260 7      1927.270    22430692.802 7  91849937.345 7
      1501.769  
  21012418.242 7 110421003.143 7       366.318    21553321.433 7  88257248.258 7
     -2148.284  
  21553321.433 7 113263468.598 7     -2756.964    20702263.774 7  84772309.411 7
       459.368  
 24 01 02 10 00 06.1000000  0  7G32G23G18G27G10G24G15
  22907154.039 7 120377906.957 7      2591.481    20083152.124 7  82237150.702 7
      -631.554  
  20702252.554 7 108791071.451 7       589.670    21012411.272 7  86042311.570 7
       285.382  
  20083152.124 7 105537676.734 7      -810.495    22907154.039 7  93800966.460 7
      2019.336  
  23522834.090 7 123613327.462 7       184.836    23522834.090 7  96322073.347 7
       144.028  
  22430656.126 7 117873893.526 7      1927.413    22430656.126 7  91849787.163 7
      1501.880  
  21012411.272 7 110420966.515 7       366.241    21553373.895 7  88257463.080 7
     -2148.151  
  21553373.895 7 113263744.286 7     -2756.794    20702252.554 7  84772263.468 7
       459.483  
 24 01 02 10 00 06.2000000  0  7G32G23G18G27G10G24G15
  22907104.726 7 120377647.819 7      2591.279    20083167.549 7  82237213.862 7
      -631.653  
  20702241.332 7 108791012.476 7       589.816    21012404.303 7  86042283.035 7
       285.322  
  20083167.549 7 105537757.790 7      -810.622    22907104.726 7  93800764.535 7
      2019.179  
  23522830.572 7 123613308.975 7       184.909    23522830.572 7  96322058.941 7
       144.085  
  22430619.447 7 117873700.777 7      1927.555    22430619.447 7  91849636.969 7
      1501.991  
  21012404.303 7 110420929.894 7       366.163    21553426.354 7  88257677.889 7
     -2148.019  
  21553426.354 7 113264019.957 7     -2756.624    20702241.332 7  84772217.514 7
       459.597  
 24 01 02 10 00 06.3000000  0  7G32G23G18G27G10G24G15
  22907055.418 7 120377388.701 7      2591.079    20083182.976 7  82237277.032 7
      -631.752  
  20702230.106 7 108790953.487 7       589.961    21012397.336 7  86042254.505 7
       285.262  
  20083182.976 7 105537838.858 7      -810.749    22907055.418 7  93800562.625 7
      2019.023  
  23522827.052 7 123613290.480 7       184.981    23522827.052 7  96322044.530 7
       144.141  
  22430582.766 7 117873508.015 7      1927.697    22430582.766 7  91849486.765 7
      1502.101  
  21012397.336 7 110420893.282 7       366.086    21553478.809 7  88257892.684 7
     -2147.888  
  21553478.809 7 113264295.611 7     -2756.456    20702230.106 7  84772171.549 7
       459.710  
 24 01 02 10 00 06.4000000  0  7G32G23G18G27G10G24G15
  22907006.113 7 120377129.604 7      2590.880    20083198.405 7  82237340.212 7
      -631.850  
  20702218.878 7 108790894.484 7       590.105    21012390.371 7  86042225.982 7
       285.202  
  20083198.405 7 105537919.939 7      -810.875    22907006.113 7  93800360.730 7
      2018.867  
  23522823.531 7 123613271.979 7       185.051    23522823.531 7  96322030.113 7
       144.196  
  22430546.082 7 117873315.238 7      1927.837    22430546.082 7  91849336.549 7
      1502.211  
  21012390.371 7 110420856.677 7       366.009    21553531.261 7  88258107.466 7
     -2147.758  
  21553531.261 7 113264571.248 7     -2756.290    20702218.878 7  84772125.572 7
       459.822  
 24 01 02 10 00 06.5000000  0  7G32G23G18G27G10G24G15
  22906956.812 7 120376870.525 7      2590.682    20083213.836 7  82237403.402 7
      -631.948  
  20702207.648 7 108790835.466 7       590.248    21012383.406 7  86042197.465 7
       285.142  
  20083213.836 7 105538001.033 7      -811.000    22906956.812 7  93800158.851 7
      2018.713  
  23522820.009 7 123613253.470 7       185.121    23522820.009 7  96322015.691 7
       144.250  
  22430509.395 7 117873122.447 7      1927.976    22430509.395 7  91849186.323 7
      1502.319  
  21012383.406 7 110420820.080 7       365.932    21553583.710 7  88258322.236 7
     -2147.630  
  21553583.710 7 113264846.869 7     -2756.125    20702207.648 7  84772079.584 7
       459.933  
 24 01 02 10 00 06.6000000  0  7G32G23G18G27G10G24G15
  22906907.515 7 120376611.467 7      2590.485    20083229.270 7  82237466.602 7
      -632.046  
  20702196.414 7 108790776.435 7       590.389    21012376.444 7  86042168.954 7
       285.082  
  20083229.270 7 105538082.139 7      -811.126    22906907.515 7  93799956.987 7
      2018.560  
  23522816.486 7 123613234.955 7       185.190    23522816.486 7  96322001.263 7
       144.304  
  22430472.705 7 117872929.643 7      1928.115    22430472.705 7  91849036.085 7
      1502.427  
  21012376.444 7 110420783.491 7       365.855    21553636.155 7  88258536.992 7
     -2147.502  
  21553636.155 7 113265122.473 7     -2755.961    20702196.414 7  84772033.585 7
       460.043  
 24 01 02 10 00 06.7000000  0  7G32G23G18G27G10G24G15
  22906858.222 7 120376352.428 7      2590.290    20083244.707 7  82237529.812 7
      -632.143  
  20702185.178 7 108790717.389 7       590.529    21012369.482 7  86042140.449 7
       285.022  
  20083244.707 7 105538163.258 7      -811.250    22906858.222 7  93799755.139 7
      2018.408  
  23522812.961 7 123613216.432 7       185.258    23522812.961 7  96321986.830 7
       144.357  
  22430436.013 7 117872736.824 7      1928.252    22430436.013 7  91848885.837 7
      1502.534  
  21012369.482 7 110420746.909 7       365.778    21553688.598 7  88258751.736 7
     -2147.375  
  21553688.598 7 113265398.061 7     -2755.798    20702185.178 7  84771987.576 7
       460.153  
 24 01 02 10 00 06.8000000  0  7G32G23G18G27G10G24G15
  22906808.932 7 120376093.409 7      2590.096    20083260.146 7  82237593.031 7
      -632.240  
  20702173.940 7 108790658.329 7       590.669    21012362.523 7  86042111.949 7
       284.962  
  20083260.146 7 105538244.389 7      -811.375    22906808.932 7  93799553.306 7
      2018.256  
  23522809.435 7 123613197.903 7       185.325    23522809.435 7  96321972.392 7
       144.409  
  22430399.318 7 117872543.993 7      1928.388    22430399.318 7  91848735.579 7
      1502.640  
  21012362.523 7 110420710.335 7       365.701    21553741.038 7  88258966.467 7
     -2147.250  
  21553741.038 7 113265673.633 7     -2755.637    20702173.940 7  84771941.555 7
       460.261  
 24 01 02 10 00 06.9000000  0  7G32G23G18G27G10G24G15
  22906759.646 7 120375834.409 7      2589.903    20083275.587 7  82237656.260 7
      -632.337  
  20702162.698 7 108790599.255 7       590.807    21012355.564 7  86042083.456 7
       284.902  
  20083275.587 7 105538325.533 7      -811.499    22906759.646 7  93799351.488 7
      2018.106  
  23522805.908 7 123613179.367 7       185.391    23522805.908 7  96321957.949 7
       144.460  
  22430362.621 7 117872351.147 7      1928.523    22430362.621 7  91848585.309 7
      1502.745  
  21012355.564 7 110420673.769 7       365.625    21553793.474 7  88259181.186 7
     -2147.125  
  21553793.474 7 113265949.189 7     -2755.477    20702162.698 7  84771895.523 7
       460.369  
 24 01 02 10 00 07.0000000  0  7G32G23G18G27G10G24G15
  22906710.364 7 120375575.428 7      2589.711    20083291.030 7  82237719.498 7
      -632.433  
  20702151.454 7 108790540.168 7       590.944    21012348.607 7  86042054.969 7
       284.843  
  20083291.030 7 105538406.689 7      -811.622    22906710.364 7  93799149.685 7
      2017.956  
  23522802.380 7 123613160.825 7       185.456    23522802.380 7  96321943.500 7
       144.511  
  22430325.921 7 117872158.288 7      1928.658    22430325.921 7  91848435.030 7
      1502.850  
  21012348.607 7 110420637.210 7       365.548    21553845.908 7  88259395.892 7
     -2147.002  
  21553845.908 7 113266224.729 7     -2755.319    20702151.454 7  84771849.481 7
       460.475  
 24 01 02 10 00 07.1000000  0  7G32G23G18G27G10G24G15
  22906661.085 7 120375316.467 7      2589.520    20083306.476 7  82237782.746 7
      -632.529  
  20702140.208 7 108790481.066 7       591.079    21012341.652 7  86042026.488 7
       284.783  
  20083306.476 7 105538487.858 7      -811.745    22906661.085 7  93798947.896 7
      2017.808  
  23522798.850 7 123613142.276 7       185.520    23522798.850 7  96321929.046 7
       144.561  
  22430289.219 7 117871965.416 7      1928.791    22430289.219 7  91848284.739 7
      1502.954  
  21012341.652 7 110420600.659 7       365.471    21553898.338 7  88259610.587 7
     -2146.879  
  21553898.338 7 113266500.253 7     -2755.162    20702140.208 7  84771803.428 7
       460.581  
 24 01 02 10 00 07.2000000  0  7G32G23G18G27G10G24G15
  22906611.810 7 120375057.524 7      2589.331    20083321.924 7  82237846.004 7
      -632.624  
  20702128.958 7 108790421.952 7       591.214    21012334.698 7  86041998.012 7
       284.723  
  20083321.924 7 105538569.038 7      -811.868    22906611.810 7  93798746.123 7
      2017.660  
  23522795.319 7 123613123.721 7       185.583    23522795.319 7  96321914.588 7
       144.610  
  22430252.514 7 117871772.530 7      1928.923    22430252.514 7  91848134.439 7
      1503.057  
  21012334.698 7 110420564.116 7       365.395    21553950.766 7  88259825.268 7
     -2146.758  
  21553950.766 7 113266775.761 7     -2755.006    20702128.958 7  84771757.365 7
       460.686  
 24 01 02 10 00 07.3000000  0  7G32G23G18G27G10G24G15
  22906562.538 7 120374798.601 7      2589.142    20083337.375 7  82237909.271 7
      -632.720  
  20702117.707 7 108790362.824 7       591.348    21012327.746 7  86041969.543 7
       284.664  
  20083337.375 7 105538650.231 7      -811.990    22906562.538 7  93798544.364 7
      2017.514  
  23522791.787 7 123613105.160 7       185.646    23522791.787 7  96321900.124 7
       144.659  
  22430215.807 7 117871579.631 7      1929.054    22430215.807 7  91847984.128 7
      1503.159  
  21012327.746 7 110420527.580 7       365.318    21554003.190 7  88260039.938 7
     -2146.637  
  21554003.190 7 113267051.254 7     -2754.851    20702117.707 7  84771711.291 7
       460.790  
 24 01 02 10 00 07.4000000  0  7G32G23G18G27G10G24G15
  22906513.270 7 120374539.696 7      2588.955    20083352.827 7  82237972.548 7
      -632.814  
  20702106.453 7 108790303.682 7       591.480    21012320.795 7  86041941.080 7
       284.604  
  20083352.827 7 105538731.436 7      -812.112    22906513.270 7  93798342.620 7
      2017.368  
  23522788.253 7 123613086.592 7       185.707    23522788.253 7  96321885.656 7
       144.707  
  22430179.097 7 117871386.719 7      1929.185    22430179.097 7  91847833.807 7
      1503.261  
  21012320.795 7 110420491.052 7       365.242    21554055.612 7  88260254.596 7
     -2146.517  
  21554055.612 7 113267326.731 7     -2754.697    20702106.453 7  84771665.207 7
       460.894  
 24 01 02 10 00 07.5000000  0  7G32G23G18G27G10G24G15
  22906464.006 7 120374280.810 7      2588.769    20083368.283 7  82238035.834 7
      -632.909  
  20702095.196 7 108790244.528 7       591.611    21012313.845 7  86041912.622 7
       284.545  
  20083368.283 7 105538812.653 7      -812.233    22906464.006 7  93798140.891 7
      2017.223  
  23522784.719 7 123613068.018 7       185.768    23522784.719 7  96321871.183 7
       144.754  
  22430142.384 7 117871193.794 7      1929.314    22430142.384 7  91847683.476 7
      1503.362  
  21012313.845 7 110420454.532 7       365.165    21554108.030 7  88260469.242 7
     -2146.399  
  21554108.030 7 113267602.193 7     -2754.545    20702095.196 7  84771619.112 7
       460.996  
 24 01 02 10 00 07.6000000  0  7G32G23G18G27G10G24G15
  22906414.745 7 120374021.942 7      2588.584    20083383.740 7  82238099.129 7
      -633.003  
  20702083.937 7 108790185.360 7       591.742    21012306.897 7  86041884.171 7
       284.485  
  20083383.740 7 105538893.883 7      -812.354    22906414.745 7  93797939.176 7
      2017.079  
  23522781.183 7 123613049.438 7       185.828    23522781.183 7  96321856.705 7
       144.801  
  22430105.669 7 117871000.856 7      1929.443    22430105.669 7  91847533.135 7
      1503.462  
  21012306.897 7 110420418.019 7       365.089    21554160.446 7  88260683.876 7
     -2146.281  
  21554160.446 7 113267877.640 7     -2754.394    20702083.937 7  84771573.008 7
       461.097  
 24 01 02 10 00 07.7000000  0  7G32G23G18G27G10G24G15
  22906365.487 7 120373763.093 7      2588.401    20083399.200 7  82238162.434 7
      -633.097  
  20702072.675 7 108790126.179 7       591.871    21012299.950 7  86041855.725 7
       284.426  
  20083399.200 7 105538975.124 7      -812.475    22906365.487 7  93797737.475 7
      2016.936  
  23522777.647 7 123613030.853 7       185.886    23522777.647 7  96321842.223 7
       144.847  
  22430068.952 7 117870807.905 7      1929.570    22430068.952 7  91847382.784 7
      1503.561  
  21012299.950 7 110420381.514 7       365.013    21554212.859 7  88260898.498 7
     -2146.164  
  21554212.859 7 113268153.072 7     -2754.244    20702072.675 7  84771526.893 7
       461.198  
 24 01 02 10 00 07.8000000  0  7G32G23G18G27G10G24G15
  22906316.234 7 120373504.262 7      2588.218    20083414.662 7  82238225.749 7
      -633.191  
  20702061.411 7 108790066.986 7       591.999    21012293.005 7  86041827.286 7
       284.366  
  20083414.662 7 105539056.378 7      -812.595    22906316.234 7  93797535.788 7
      2016.793  
  23522774.109 7 123613012.261 7       185.944    23522774.109 7  96321827.736 7
       144.892  
  22430032.232 7 117870614.942 7      1929.697    22430032.232 7  91847232.422 7
      1503.660  
  21012293.005 7 110420345.016 7       364.937    21554265.269 7  88261113.109 7
     -2146.049  
  21554265.269 7 113268428.489 7     -2754.096    20702061.411 7  84771480.768 7
       461.298  
 24 01 02 10 00 07.9000000  0  7G32G23G18G27G10G24G15
  22906266.983 7 120373245.449 7      2588.037    20083430.126 7  82238289.073 7
      -633.284  
  20702050.144 7 108790007.779 7       592.126    21012286.061 7  86041798.852 7
       284.307  
  20083430.126 7 105539137.643 7      -812.714    22906266.983 7  93797334.116 7
      2016.652  
  23522770.570 7 123612993.664 7       186.002    23522770.570 7  96321813.244 7
       144.936  
  22429995.510 7 117870421.966 7      1929.822    22429995.510 7  91847082.052 7
      1503.758  
  21012286.061 7 110420308.527 7       364.861    21554317.677 7  88261327.708 7
     -2145.934  
  21554317.677 7 113268703.891 7     -2753.949    20702050.144 7  84771434.633 7
       461.397  
 24 01 02 10 00 08.0000000  0  7G32G23G18G27G10G24G15
  22906217.736 7 120372986.655 7      2587.856    20083445.593 7  82238352.406 7
      -633.377  
  20702038.875 7 108789948.561 7       592.252    21012279.119 7  86041770.424 7
       284.248  
  20083445.593 7 105539218.920 7      -812.834    22906217.736 7  93797132.458 7
      2016.511  
  23522767.030 7 123612975.061 7       186.058    23522767.030 7  96321798.749 7
       144.980  
  22429958.786 7 117870228.978 7      1929.947    22429958.786 7  91846931.671 7
      1503.855  
  21012279.119 7 110420272.044 7       364.784    21554370.081 7  88261542.295 7
     -2145.820  
  21554370.081 7 113268979.279 7     -2753.803    20702038.875 7  84771388.489 7
       461.495  
 24 01 02 10 00 08.1000000  0  7G32G23G18G27G10G24G15
  22906168.493 7 120372727.878 7      2587.677    20083461.062 7  82238415.748 7
      -633.470  
  20702027.604 7 108789889.329 7       592.377    21012272.178 7  86041742.002 7
       284.188  
  20083461.062 7 105539300.210 7      -812.953    22906168.493 7  93796930.814 7
      2016.372  
  23522763.489 7 123612956.452 7       186.113    23522763.489 7  96321784.248 7
       145.023  
  22429922.059 7 117870035.977 7      1930.071    22429922.059 7  91846781.281 7
      1503.951  
  21012272.178 7 110420235.570 7       364.708    21554422.483 7  88261756.872 7
     -2145.707  
  21554422.483 7 113269254.652 7     -2753.658    20702027.604 7  84771342.334 7
       461.593  
 24 01 02 10 00 08.2000000  0  7G32G23G18G27G10G24G15
  22906119.252 7 120372469.119 7      2587.499    20083476.533 7  82238479.100 7
      -633.562  
  20702016.330 7 108789830.085 7       592.501    21012265.238 7  86041713.587 7
       284.129  
  20083476.533 7 105539381.511 7      -813.071    22906119.252 7  93796729.184 7
      2016.233  
  23522759.947 7 123612937.838 7       186.168    23522759.947 7  96321769.744 7
       145.066  
  22429885.330 7 117869842.964 7      1930.193    22429885.330 7  91846630.881 7
      1504.047  
  21012265.238 7 110420199.103 7       364.633    21554474.882 7  88261971.437 7
     -2145.595  
  21554474.882 7 113269530.011 7     -2753.514    20702016.330 7  84771296.170 7
       461.689  
 24 01 02 10 00 08.3000000  0  7G32G23G18G27G10G24G15
  22906070.016 7 120372210.378 7      2587.321    20083492.006 7  82238542.460 7
      -633.654  
  20702005.054 7 108789770.829 7       592.624    21012258.300 7  86041685.177 7
       284.070  
  20083492.006 7 105539462.824 7      -813.189    22906070.016 7  93796527.567 7
      2016.095  
  23522756.403 7 123612919.219 7       186.221    23522756.403 7  96321755.235 7
       145.108  
  22429848.598 7 117869649.938 7      1930.315    22429848.598 7  91846480.471 7
      1504.142  
  21012258.300 7 110420162.643 7       364.557    21554527.278 7  88262185.991 7
     -2145.484  
  21554527.278 7 113269805.355 7     -2753.371    20702005.054 7  84771249.996 7
       461.785  
 24 01 02 10 00 08.4000000  0  7G32G23G18G27G10G24G15
  22906020.782 7 120371951.655 7      2587.145    20083507.482 7  82238605.830 7
      -633.746  
  20701993.775 7 108789711.560 7       592.746    21012251.364 7  86041656.772 7
       284.011  
  20083507.482 7 105539544.149 7      -813.307    22906020.782 7  93796325.965 7
      2015.957  
  23522752.859 7 123612900.594 7       186.274    23522752.859 7  96321740.722 7
       145.149  
  22429811.864 7 117869456.901 7      1930.436    22429811.864 7  91846330.052 7
      1504.236  
  21012251.364 7 110420126.191 7       364.481    21554579.672 7  88262400.534 7
     -2145.374  
  21554579.672 7 113270080.685 7     -2753.230    20701993.775 7  84771203.813 7
       461.880  
 24 01 02 10 00 08.5000000  0  7G32G23G18G27G10G24G15
  22905971.552 7 120371692.949 7      2586.970    20083522.959 7  82238669.209 7
      -633.837  
  20701982.495 7 108789652.280 7       592.867    21012244.429 7  86041628.374 7
       283.952  
  20083522.959 7 105539625.485 7      -813.424    22905971.552 7  93796124.376 7
      2015.821  
  23522749.314 7 123612881.964 7       186.326    23522749.314 7  96321726.206 7
       145.189  
  22429775.128 7 117869263.851 7      1930.557    22429775.128 7  91846179.624 7
      1504.330  
  21012244.429 7 110420089.747 7       364.405    21554632.063 7  88262615.066 7
     -2145.265  
  21554632.063 7 113270356.001 7     -2753.090    20701982.495 7  84771157.620 7
       461.975  
 24 01 02 10 00 08.6000000  0  7G32G23G18G27G10G24G15
  22905922.325 7 120371434.261 7      2586.797    20083538.439 7  82238732.598 7
      -633.928  
  20701971.212 7 108789592.987 7       592.987    21012237.495 7  86041599.982 7
       283.893  
  20083538.439 7 105539706.834 7      -813.541    22905922.325 7  93795922.801 7
      2015.686  
  23522745.768 7 123612863.329 7       186.378    23522745.768 7  96321711.685 7
       145.229  
  22429738.390 7 117869070.789 7      1930.676    22429738.390 7  91846029.186 7
      1504.423  
  21012237.495 7 110420053.310 7       364.329    21554684.451 7  88262829.587 7
     -2145.157  
  21554684.451 7 113270631.303 7     -2752.951    20701971.212 7  84771111.418 7
       462.068  
 24 01 02 10 00 08.7000000  0  7G32G23G18G27G10G24G15
  22905873.102 7 120371175.590 7      2586.624    20083553.922 7  82238795.995 7
      -634.019  
  20701959.926 7 108789533.682 7       593.106    21012230.563 7  86041571.596 7
       283.834  
  20083553.922 7 105539788.194 7      -813.658    22905873.102 7  93795721.239 7
      2015.551  
  23522742.221 7 123612844.688 7       186.428    23522742.221 7  96321697.160 7
       145.269  
  22429701.649 7 117868877.716 7      1930.794    22429701.649 7  91845878.740 7
      1504.515  
  21012230.563 7 110420016.881 7       364.254    21554736.836 7  88263044.097 7
     -2145.049  
  21554736.836 7 113270906.591 7     -2752.813    20701959.926 7  84771065.207 7
       462.161  
 24 01 02 10 00 08.8000000  0  7G32G23G18G27G10G24G15
  22905823.882 7 120370916.936 7      2586.452    20083569.406 7  82238859.402 7
      -634.110  
  20701948.639 7 108789474.366 7       593.224    21012223.632 7  86041543.215 7
       283.775  
  20083569.406 7 105539869.565 7      -813.774    22905823.882 7  93795519.690 7
      2015.417  
  23522738.673 7 123612826.043 7       186.478    23522738.673 7  96321682.631 7
       145.307  
  22429664.906 7 117868684.631 7      1930.912    22429664.906 7  91845728.284 7
      1504.607  
  21012223.632 7 110419980.460 7       364.178    21554789.219 7  88263258.597 7
     -2144.943  
  21554789.219 7 113271181.866 7     -2752.676    20701948.639 7  84771018.986 7
       462.253  
 24 01 02 10 00 08.9000000  0  7G32G23G18G27G10G24G15
  22905774.665 7 120370658.299 7      2586.281    20083584.893 7  82238922.817 7
      -634.200  
  20701937.349 7 108789415.037 7       593.341    21012216.703 7  86041514.841 7
       283.716  
  20083584.893 7 105539950.949 7      -813.890    22905774.665 7  93795318.155 7
      2015.284  
  23522735.124 7 123612807.393 7       186.527    23522735.124 7  96321668.098 7
       145.345  
  22429628.161 7 117868491.534 7      1931.028    22429628.161 7  91845577.818 7
      1504.698  
  21012216.703 7 110419944.046 7       364.102    21554841.600 7  88263473.086 7
     -2144.837  
  21554841.600 7 113271457.126 7     -2752.541    20701937.349 7  84770972.756 7
       462.344  
 24 01 02 10 00 09.0000000  0  7G32G23G18G27G10G24G15
  22905725.451 7 120370399.680 7      2586.111    20083600.382 7  82238986.242 7
      -634.290  
  20701926.057 7 108789355.697 7       593.457    21012209.775 7  86041486.472 7
       283.657  
  20083600.382 7 105540032.343 7      -814.005    22905725.451 7  93795116.634 7
      2015.152  
  23522731.574 7 123612788.738 7       186.575    23522731.574 7  96321653.562 7
       145.383  
  22429591.414 7 117868298.425 7      1931.144    22429591.414 7  91845427.344 7
      1504.788  
  21012209.775 7 110419907.639 7       364.027    21554893.978 7  88263687.564 7
     -2144.732  
  21554893.978 7 113271732.374 7     -2752.406    20701926.057 7  84770926.517 7
       462.434  
 24 01 02 10 00 09.1000000  0  7G32G23G18G27G10G24G15
  22905676.241 7 120370141.077 7      2585.943    20083615.873 7  82239049.675 7
      -634.379  
  20701914.763 7 108789296.346 7       593.572    21012202.848 7  86041458.109 7
       283.598  
  20083615.873 7 105540113.750 7      -814.120    22905676.241 7  93794915.125 7
      2015.020  
  23522728.023 7 123612770.078 7       186.622    23522728.023 7  96321639.022 7
       145.420  
  22429554.664 7 117868105.305 7      1931.259    22429554.664 7  91845276.861 7
      1504.877  
  21012202.848 7 110419871.240 7       363.951    21554946.353 7  88263902.032 7
     -2144.628  
  21554946.353 7 113272007.608 7     -2752.273    20701914.763 7  84770880.270 7
       462.524  
 24 01 02 10 00 09.2000000  0  7G32G23G18G27G10G24G15
  22905627.034 7 120369882.491 7      2585.775    20083631.366 7  82239113.117 7
      -634.469  
  20701903.466 7 108789236.983 7       593.686    21012195.923 7  86041429.752 7
       283.540  
  20083631.366 7 105540195.167 7      -814.235    22905627.034 7  93794713.630 7
      2014.889  
  23522724.471 7 123612751.413 7       186.668    23522724.471 7  96321624.478 7
       145.456  
  22429517.912 7 117867912.173 7      1931.373    22429517.912 7  91845126.369 7
      1504.966  
  21012195.923 7 110419834.849 7       363.876    21554998.726 7  88264116.490 7
     -2144.525  
  21554998.726 7 113272282.829 7     -2752.141    20701903.466 7  84770834.013 7
       462.613  
 24 01 02 10 00 09.3000000  0  7G32G23G18G27G10G24G15
  22905577.829 7 120369623.922 7      2585.608    20083646.862 7  82239176.569 7
      -634.558  
  20701892.168 7 108789177.609 7       593.799    21012189.000 7  86041401.401 7
       283.481  
  20083646.862 7 105540276.597 7      -814.349    22905577.829 7  93794512.147 7
      2014.760  
  23522720.919 7 123612732.744 7       186.714    23522720.919 7  96321609.931 7
       145.491  
  22429481.159 7 117867719.030 7      1931.487    22429481.159 7  91844975.868 7
      1505.054  
  21012189.000 7 110419798.465 7       363.801    21555051.096 7  88264330.937 7
     -2144.423  
  21555051.096 7 113272558.036 7     -2752.010    20701892.168 7  84770787.747 7
       462.701  
 24 01 02 10 00 09.4000000  0  7G32G23G18G27G10G24G15
  22905528.629 7 120369365.370 7      2585.442    20083662.359 7  82239240.029 7
      -634.647  
  20701880.867 7 108789118.223 7       593.911    21012182.077 7  86041373.056 7
       283.422  
  20083662.359 7 105540358.037 7      -814.463    22905528.629 7  93794310.678 7
      2014.630  
  23522717.365 7 123612714.071 7       186.759    23522717.365 7  96321595.380 7
       145.526  
  22429444.403 7 117867525.876 7      1931.599    22429444.403 7  91844825.358 7
      1505.142  
  21012182.077 7 110419762.089 7       363.725    21555103.464 7  88264545.374 7
     -2144.322  
  21555103.464 7 113272833.230 7     -2751.880    20701880.867 7  84770741.473 7
       462.788  
 24 01 02 10 00 09.5000000  0  7G32G23G18G27G10G24G15
  22905479.431 7 120369106.834 7      2585.278    20083677.859 7  82239303.498 7
      -634.735  
  20701869.564 7 108789058.826 7       594.023    21012175.157 7  86041344.717 7
       283.364  
  20083677.859 7 105540439.489 7      -814.577    22905479.431 7  93794109.221 7
      2014.502  
  23522713.811 7 123612695.392 7       186.803    23522713.811 7  96321580.825 7
       145.561  
  22429407.644 7 117867332.710 7      1931.711    22429407.644 7  91844674.839 7
      1505.229  
  21012175.157 7 110419725.720 7       363.650    21555155.829 7  88264759.802 7
     -2144.221  
  21555155.829 7 113273108.412 7     -2751.751    20701869.564 7  84770695.189 7
       462.875  
 24 01 02 10 00 09.6000000  0  7G32G23G18G27G10G24G15
  22905430.236 7 120368848.314 7      2585.114    20083693.361 7  82239366.976 7
      -634.823  
  20701858.259 7 108788999.419 7       594.133    21012168.237 7  86041316.383 7
       283.305  
  20083693.361 7 105540520.953 7      -814.690    22905430.236 7  93793907.777 7
      2014.374  
  23522710.256 7 123612676.710 7       186.846    23522710.256 7  96321566.268 7
       145.594  
  22429370.884 7 117867139.534 7      1931.821    22429370.884 7  91844524.312 7
      1505.315  
  21012168.237 7 110419689.359 7       363.575    21555208.192 7  88264974.219 7
     -2144.122  
  21555208.192 7 113273383.581 7     -2751.623    20701858.259 7  84770648.898 7
       462.961  
 24 01 02 10 00 09.7000000  0  7G32G23G18G27G10G24G15
  22905381.045 7 120368589.811 7      2584.951    20083708.865 7  82239430.463 7
      -634.911  
  20701846.952 7 108788940.000 7       594.242    21012161.319 7  86041288.056 7
       283.247  
  20083708.865 7 105540602.427 7      -814.803    22905381.045 7  93793706.346 7
      2014.248  
  23522706.700 7 123612658.023 7       186.889    23522706.700 7  96321551.706 7
       145.628  
  22429334.122 7 117866946.346 7      1931.931    22429334.122 7  91844373.776 7
      1505.401  
  21012161.319 7 110419653.005 7       363.500    21555260.552 7  88265188.626 7
     -2144.023  
  21555260.552 7 113273658.737 7     -2751.496    20701846.952 7  84770602.597 7
       463.046  
 24 01 02 10 00 09.8000000  0  7G32G23G18G27G10G24G15
  22905331.856 7 120368331.324 7      2584.789    20083724.371 7  82239493.958 7
      -634.999  
  20701835.643 7 108788880.570 7       594.351    21012154.403 7  86041259.734 7
       283.188  
  20083724.371 7 105540683.913 7      -814.915    22905331.856 7  93793504.928 7
      2014.122  
  23522703.143 7 123612639.332 7       186.931    23522703.143 7  96321537.142 7
       145.660  
  22429297.357 7 117866753.147 7      1932.040    22429297.357 7  91844223.232 7
      1505.486  
  21012154.403 7 110419616.659 7       363.425    21555312.910 7  88265403.023 7
     -2143.925  
  21555312.910 7 113273933.880 7     -2751.370    20701835.643 7  84770556.289 7
       463.130  
 24 01 02 10 00 09.9000000  0  7G32G23G18G27G10G24G15
  22905282.671 7 120368072.853 7      2584.629    20083739.880 7  82239557.463 7
      -635.086  
  20701824.332 7 108788821.130 7       594.458    21012147.488 7  86041231.418 7
       283.130  
  20083739.880 7 105540765.410 7      -815.028    22905282.671 7  93793303.522 7
      2013.996  
  23522699.585 7 123612620.637 7       186.972    23522699.585 7  96321522.574 7
       145.692  
  22429260.591 7 117866559.938 7      1932.149    22429260.591 7  91844072.679 7
      1505.570  
  21012147.488 7 110419580.320 7       363.350    21555365.266 7  88265617.411 7
     -2143.828  
  21555365.266 7 113274209.011 7     -2751.246    20701824.332 7  84770509.971 7
       463.214  
 24 01 02 10 00 10.0000000  0  7G32G23G18G27G10G24G15
  22905233.489 7 120367814.398 7      2584.469    20083755.390 7  82239620.976 7
      -635.174  
  20701813.019 7 108788761.679 7       594.565    21012140.574 7  86041203.108 7
       283.071  
  20083755.390 7 105540846.919 7      -815.139    22905233.489 7  93793102.128 7
      2013.872  
  23522696.027 7 123612601.938 7       187.012    23522696.027 7  96321508.004 7
       145.724  
  22429223.822 7 117866366.718 7      1932.256    22429223.822 7  91843922.118 7
      1505.654  
  21012140.574 7 110419543.989 7       363.275    21555417.619 7  88265831.789 7
     -2143.731  
  21555417.619 7 113274484.129 7     -2751.122    20701813.019 7  84770463.646 7
       463.297  
 24 01 02 10 00 10.1000000  0  7G32G23G18G27G10G24G15
  22905184.309 7 120367555.959 7      2584.310    20083770.903 7  82239684.497 7
      -635.260  
  20701801.704 7 108788702.217 7       594.671    21012133.662 7  86041174.804 7
       283.013  
  20083770.903 7 105540928.438 7      -815.251    22905184.309 7  93792900.747 7
      2013.748  
  23522692.468 7 123612583.235 7       187.052    23522692.468 7  96321493.430 7
       145.755  
  22429187.051 7 117866173.487 7      1932.363    22429187.051 7  91843771.548 7
      1505.737  
  21012133.662 7 110419507.665 7       363.200    21555469.970 7  88266046.157 7
     -2143.636  
  21555469.970 7 113274759.235 7     -2750.999    20701801.704 7  84770417.312 7
       463.380  
 24 01 02 10 00 10.2000000  0  7G32G23G18G27G10G24G15
  22905135.133 7 120367297.536 7      2584.152    20083786.418 7  82239748.028 7
      -635.347  
  20701790.387 7 108788642.744 7       594.775    21012126.751 7  86041146.506 7
       282.954  
  20083786.418 7 105541009.969 7      -815.362    22905135.133 7  93792699.379 7
      2013.625  
  23522688.908 7 123612564.528 7       187.091    23522688.908 7  96321478.853 7
       145.785  
  22429150.279 7 117865980.245 7      1932.469    22429150.279 7  91843620.970 7
      1505.820  
  21012126.751 7 110419471.349 7       363.125    21555522.319 7  88266260.516 7
     -2143.541  
  21555522.319 7 113275034.329 7     -2750.878    20701790.387 7  84770370.970 7
       463.461  
 24 01 02 10 00 10.3000000  0  7G32G23G18G27G10G24G15
  22905085.960 7 120367039.129 7      2583.995    20083801.935 7  82239811.567 7
      -635.433  
  20701779.067 7 108788583.262 7       594.879    21012119.842 7  86041118.213 7
       282.896  
  20083801.935 7 105541091.510 7      -815.473    22905085.960 7  93792498.022 7
      2013.502  
  23522685.347 7 123612545.817 7       187.129    23522685.347 7  96321464.273 7
       145.815  
  22429113.504 7 117865786.993 7      1932.574    22429113.504 7  91843470.384 7
      1505.902  
  21012119.842 7 110419435.040 7       363.050    21555574.665 7  88266474.865 7
     -2143.447  
  21555574.665 7 113275309.411 7     -2750.757    20701779.067 7  84770324.620 7
       463.542  
 24 01 02 10 00 10.4000000  0  7G32G23G18G27G10G24G15
  22905036.789 7 120366780.737 7      2583.839    20083817.454 7  82239875.114 7
      -635.519  
  20701767.746 7 108788523.769 7       594.982    21012112.934 7  86041089.926 7
       282.838  
  20083817.454 7 105541173.063 7      -815.583    22905036.789 7  93792296.678 7
      2013.381  
  23522681.786 7 123612527.102 7       187.166    23522681.786 7  96321449.690 7
       145.844  
  22429076.728 7 117865593.730 7      1932.678    22429076.728 7  91843319.790 7
      1505.983  
  21012112.934 7 110419398.739 7       362.975    21555627.009 7  88266689.206 7
     -2143.354  
  21555627.009 7 113275584.480 7     -2750.638    20701767.746 7  84770278.261 7
       463.623  
 24 01 02 10 00 10.5000000  0  7G32G23G18G27G10G24G15
  22904987.622 7 120366522.361 7      2583.683    20083832.975 7  82239938.671 7
      -635.605  
  20701756.423 7 108788464.265 7       595.085    21012106.028 7  86041061.646 7
       282.780  
  20083832.975 7 105541254.627 7      -815.693    22904987.622 7  93792095.346 7
      2013.260  
  23522678.224 7 123612508.383 7       187.203    23522678.224 7  96321435.104 7
       145.872  
  22429039.949 7 117865400.457 7      1932.782    22429039.949 7  91843169.188 7
      1506.064  
  21012106.028 7 110419362.445 7       362.901    21555679.351 7  88266903.536 7
     -2143.262  
  21555679.351 7 113275859.538 7     -2750.519    20701756.423 7  84770231.895 7
       463.702  
 24 01 02 10 00 10.6000000  0  7G32G23G18G27G10G24G15
  22904938.458 7 120366264.000 7      2583.529    20083848.498 7  82240002.235 7
      -635.691  
  20701745.098 7 108788404.752 7       595.186    21012099.123 7  86041033.370 7
       282.721  
  20083848.498 7 105541336.202 7      -815.803    22904938.458 7  93791894.026 7
      2013.140  
  23522674.661 7 123612489.661 7       187.239    23522674.661 7  96321420.515 7
       145.900  
  22429003.168 7 117865207.174 7      1932.885    22429003.168 7  91843018.577 7
      1506.144  
  21012099.123 7 110419326.159 7       362.826    21555731.690 7  88267117.858 7
     -2143.170  
  21555731.690 7 113276134.584 7     -2750.402    20701745.098 7  84770185.521 7
       463.781  
 24 01 02 10 00 10.7000000  0  7G32G23G18G27G10G24G15
  22904889.296 7 120366005.655 7      2583.376    20083864.023 7  82240065.809 7
      -635.776  
  20701733.771 7 108788345.228 7       595.286    21012092.219 7  86041005.101 7
       282.663  
  20083864.023 7 105541417.788 7      -815.912    22904889.296 7  93791692.718 7
      2013.020  
  23522671.098 7 123612470.936 7       187.274    23522671.098 7  96321405.924 7
       145.928  
  22428966.386 7 117865013.881 7      1932.987    22428966.386 7  91842867.959 7
      1506.224  
  21012092.219 7 110419289.880 7       362.751    21555784.028 7  88267332.170 7
     -2143.079  
  21555784.028 7 113276409.619 7     -2750.285    20701733.771 7  84770139.139 7
       463.859  
 24 01 02 10 00 10.8000000  0  7G32G23G18G27G10G24G15
  22904840.138 7 120365747.325 7      2583.223    20083879.551 7  82240129.390 7
      -635.861  
  20701722.442 7 108788285.694 7       595.386    21012085.317 7  86040976.838 7
       282.605  
  20083879.551 7 105541499.384 7      -816.021    22904840.138 7  93791491.422 7
      2012.901  
  23522667.534 7 123612452.206 7       187.309    23522667.534 7  96321391.330 7
       145.955  
  22428929.601 7 117864820.577 7      1933.088    22428929.601 7  91842717.332 7
      1506.302  
  21012085.317 7 110419253.609 7       362.677    21555836.363 7  88267546.474 7
     -2142.989  
  21555836.363 7 113276684.641 7     -2750.170    20701722.442 7  84770092.749 7
       463.937  
 24 01 02 10 00 10.9000000  0  7G32G23G18G27G10G24G15
  22904790.982 7 120365489.010 7      2583.072    20083895.080 7  82240192.981 7
      -635.946  
  20701711.111 7 108788226.151 7       595.485    21012078.416 7  86040948.580 7
       282.547  
  20083895.080 7 105541580.992 7      -816.130    22904790.982 7  93791290.138 7
      2012.783  
  23522663.969 7 123612433.474 7       187.343    23522663.969 7  96321376.733 7
       145.981  
  22428892.815 7 117864627.263 7      1933.189    22428892.815 7  91842566.698 7
      1506.381  
  21012078.416 7 110419217.345 7       362.602    21555888.696 7  88267760.768 7
     -2142.900  
  21555888.696 7 113276959.653 7     -2750.055    20701711.111 7  84770046.351 7
       464.014  
 24 01 02 10 00 11.0000000  0  7G32G23G18G27G10G24G15
  22904741.829 7 120365230.711 7      2582.921    20083910.611 7  82240256.580 7
      -636.030  
  20701699.779 7 108788166.598 7       595.583    21012071.517 7  86040920.328 7
       282.489  
  20083910.611 7 105541662.610 7      -816.239    22904741.829 7  93791088.866 7
      2012.666  
  23522660.404 7 123612414.738 7       187.376    23522660.404 7  96321362.133 7
       146.007  
  22428856.027 7 117864433.939 7      1933.289    22428856.027 7  91842416.056 7
      1506.459  
  21012071.517 7 110419181.088 7       362.528    21555941.026 7  88267975.054 7
     -2142.812  
  21555941.026 7 113277234.653 7     -2749.942    20701699.779 7  84769999.946 7
       464.090  
 24 01 02 10 00 11.1000000  0  7G32G23G18G27G10G24G15
  22904692.679 7 120364972.426 7      2582.771    20083926.145 7  82240320.187 7
      -636.114  
  20701688.444 7 108788107.035 7       595.680    21012064.619 7  86040892.082 7
       282.431  
  20083926.145 7 105541744.240 7      -816.347    22904692.679 7  93790887.605 7
      2012.549  
  23522656.838 7 123612395.999 7       187.409    23522656.838 7  96321347.531 7
       146.033  
  22428819.236 7 117864240.605 7      1933.388    22428819.236 7  91842265.407 7
      1506.536  
  21012064.619 7 110419144.839 7       362.453    21555993.355 7  88268189.331 7
     -2142.724  
  21555993.355 7 113277509.641 7     -2749.829    20701688.444 7  84769953.533 7
       464.166  
 24 01 02 10 00 11.2000000  0  7G32G23G18G27G10G24G15
  22904643.532 7 120364714.156 7      2582.623    20083941.681 7  82240383.802 7
      -636.198  
  20701677.108 7 108788047.462 7       595.776    21012057.722 7  86040863.842 7
       282.373  
  20083941.681 7 105541825.880 7      -816.455    22904643.532 7  93790686.356 7
      2012.433  
  23522653.271 7 123612377.256 7       187.440    23522653.271 7  96321332.927 7
       146.058  
  22428782.444 7 117864047.262 7      1933.486    22428782.444 7  91842114.749 7
      1506.612  
  21012057.722 7 110419108.597 7       362.379    21556045.681 7  88268403.599 7
     -2142.637  
  21556045.681 7 113277784.618 7     -2749.717    20701677.108 7  84769907.113 7
       464.241  
 24 01 02 10 00 11.3000000  0  7G32G23G18G27G10G24G15
  22904594.388 7 120364455.902 7      2582.474    20083957.218 7  82240447.426 7
      -636.282  
  20701665.770 7 108787987.879 7       595.871    21012050.827 7  86040835.608 7
       282.315  
  20083957.218 7 105541907.531 7      -816.562    22904594.388 7  93790485.118 7
      2012.318  
  23522649.704 7 123612358.511 7       187.472    23522649.704 7  96321318.320 7
       146.082  
  22428745.650 7 117863853.908 7      1933.584    22428745.650 7  91841964.084 7
      1506.688  
  21012050.827 7 110419072.363 7       362.304    21556098.006 7  88268617.858 7
     -2142.551  
  21556098.006 7 113278059.584 7     -2749.607    20701665.770 7  84769860.685 7
       464.315  
 24 01 02 10 00 11.4000000  0  7G32G23G18G27G10G24G15
  22904545.246 7 120364197.662 7      2582.327    20083972.758 7  82240511.059 7
      -636.366  
  20701654.430 7 108787928.287 7       595.966    21012043.933 7  86040807.379 7
       282.257  
  20083972.758 7 105541989.192 7      -816.669    22904545.246 7  93790283.892 7
      2012.203  
  23522646.137 7 123612339.762 7       187.502    23522646.137 7  96321303.711 7
       146.106  
  22428708.855 7 117863660.545 7      1933.680    22428708.855 7  91841813.412 7
      1506.764  
  21012043.933 7 110419036.137 7       362.230    21556150.328 7  88268832.109 7
     -2142.465  
  21556150.328 7 113278334.540 7     -2749.497    20701654.430 7  84769814.250 7
       464.389  
 24 01 02 10 00 11.5000000  0  7G32G23G18G27G10G24G15
  22904496.108 7 120363939.436 7      2582.181    20083988.300 7  82240574.700 7
      -636.449  
  20701643.088 7 108787868.686 7       596.060    21012037.041 7  86040779.156 7
       282.199  
  20083988.300 7 105542070.865 7      -816.776    22904496.108 7  93790082.678 7
      2012.089  
  23522642.568 7 123612321.010 7       187.532    23522642.568 7  96321289.099 7
       146.129  
  22428672.057 7 117863467.172 7      1933.777    22428672.057 7  91841662.731 7
      1506.839  
  21012037.041 7 110418999.917 7       362.156    21556202.648 7  88269046.351 7
     -2142.380  
  21556202.648 7 113278609.484 7     -2749.388    20701643.088 7  84769767.807 7
       464.462  
 24 01 02 10 00 11.6000000  0  7G32G23G18G27G10G24G15
  22904446.972 7 120363681.225 7      2582.036    20084003.843 7  82240638.349 7
      -636.532  
  20701631.745 7 108787809.076 7       596.152    21012030.150 7  86040750.939 7
       282.141  
  20084003.843 7 105542152.547 7      -816.882    22904446.972 7  93789881.474 7
      2011.976  
  23522638.999 7 123612302.256 7       187.561    23522638.999 7  96321274.485 7
       146.152  
  22428635.257 7 117863273.789 7      1933.872    22428635.257 7  91841512.044 7
      1506.913  
  21012030.150 7 110418963.706 7       362.082    21556254.966 7  88269260.585 7
     -2142.296  
  21556254.966 7 113278884.417 7     -2749.280    20701631.745 7  84769721.358 7
       464.534  
 24 01 02 10 00 11.7000000  0  7G32G23G18G27G10G24G15
  22904397.839 7 120363423.029 7      2581.733    20084019.389 7  82240702.006 7
      -636.662  
  20701620.399 7 108787749.456 7       596.396    21012023.261 7  86040722.728 7
       282.078  
  20084019.389 7 105542234.241 7      -817.049    22904397.839 7  93789680.282 7
      2011.740  
  23522635.430 7 123612283.498 7       187.712    23522635.430 7  96321259.869 7
       146.269  
  22428598.456 7 117863080.398 7      1934.101    22428598.456 7  91841361.349 7
      1507.092  
  21012023.261 7 110418927.501 7       362.000    21556307.282 7  88269474.810 7
     -2142.077  
  21556307.282 7 113279159.340 7     -2748.999    20701620.399 7  84769674.901 7
       464.724  
 24 01 02 10 00 11.8000000  0  7G32G23G18G27G10G24G15
  22904348.741 7 120363165.020 7      2578.444    20084034.949 7  82240765.723 7
      -637.681  
  20701609.021 7 108787689.661 7       599.494    21012016.374 7  86040694.528 7
       281.914  
  20084034.949 7 105542316.011 7      -818.358    22904348.741 7  93789479.237 7
      2009.177  
  23522631.834 7 123612264.603 7       190.175    23522631.834 7  96321245.146 7
       148.188  
  22428561.625 7 117862886.849 7      1936.872    22428561.625 7  91841210.531 7
      1509.251  
  21012016.374 7 110418891.311 7       361.790    21556359.560 7  88269688.878 7
     -2139.283  
  21556359.560 7 113279434.060 7     -2745.413    20701609.021 7  84769628.307 7
       467.138  
 24 01 02 10 00 11.9000000  0  7G32G23G18G27G10G24G15
  22904299.706 7 120362907.339 7      2575.179    20084050.535 7  82240829.542 7
      -638.694  
  20701597.584 7 108787629.558 7       602.570    21012009.491 7  86040666.345 7
       281.752  
  20084050.535 7 105542397.912 7      -819.657    22904299.706 7  93789278.446 7
      2006.633  
  23522628.192 7 123612245.464 7       192.620    23522628.192 7  96321230.231 7
       150.093  
  22428524.741 7 117862693.024 7      1939.623    22428524.741 7  91841059.499 7
      1511.395  
  21012009.491 7 110418855.143 7       361.581    21556411.769 7  88269902.668 7
     -2136.509  
  21556411.769 7 113279708.424 7     -2741.854    20701597.584 7  84769581.474 7
       469.535  
 24 01 02 10 00 12.0000000  0  7G32G23G18G27G10G24G15
  22904250.733 7 120362649.984 7      2571.937    20084066.145 7  82240893.462 7
      -639.700  
  20701586.088 7 108787569.148 7       605.624    21012002.613 7  86040638.178 7
       281.590  
  20084066.145 7 105542479.942 7      -820.949    22904250.733 7  93789077.909 7
      2004.107  
  23522624.504 7 123612226.080 7       195.046    23522624.504 7  96321215.127 7
       151.984  
  22428487.806 7 117862498.925 7      1942.355    22428487.806 7  91840908.253 7
      1513.523  
  21012002.613 7 110418818.995 7       361.373    21556463.912 7  88270116.181 7
     -2133.756  
  21556463.912 7 113279982.432 7     -2738.320    20701586.088 7  84769534.401 7
       471.915  
 24 01 02 10 00 12.1000000  0  7G32G23G18G27G10G24G15
  22904201.821 7 120362392.951 7      2568.718    20084081.779 7  82240957.482 7
      -640.700  
  20701574.534 7 108787508.434 7       608.656    21011995.738 7  86040610.027 7
       281.429  
  20084081.779 7 105542562.102 7      -822.231    22904201.821 7  93788877.624 7
      2001.599  
  23522620.769 7 123612206.455 7       197.455    23522620.769 7  96321199.835 7
       153.861  
  22428450.818 7 117862304.553 7      1945.067    22428450.818 7  91840756.795 7
      1515.637  
  21011995.738 7 110418782.868 7       361.167    21556515.987 7  88270329.419 7
     -2131.022  
  21556515.987 7 113280256.088 7     -2734.811    20701574.534 7  84769487.091 7
       474.277  
 24 01 02 10 00 12.2000000  0  7G32G23G18G27G10G24G15
  22904152.971 7 120362136.239 7      2565.680    20084097.438 7  82241021.601 7
      -641.646  
  20701562.923 7 108787447.417 7       611.515    21011988.867 7  86040581.892 7
       281.274  
  20084097.438 7 105542644.389 7      -823.445    22904152.971 7  93788677.589 7
      1999.231  
  23522616.989 7 123612186.590 7       199.723    23522616.989 7  96321184.356 7
       155.629  
  22428413.779 7 117862109.912 7      1947.626    22428413.779 7  91840605.126 7
      1517.630  
  21011988.867 7 110418746.762 7       360.968    21556567.995 7  88270542.386 7
     -2128.444  
  21556567.995 7 113280529.395 7     -2731.503    20701562.923 7  84769439.546 7
       476.505  
 24 01 02 10 00 12.3000000  0  7G32G23G18G27G10G24G15
  22904104.148 7 120361879.673 7      2565.653    20084113.108 7  82241085.768 7
      -641.695  
  20701551.287 7 108787386.267 7       611.496    21011981.999 7  86040553.768 7
       281.221  
  20084113.108 7 105542726.736 7      -823.508    22904104.148 7  93788477.667 7
      1999.210  
  23522613.189 7 123612166.621 7       199.661    23522613.189 7  96321168.795 7
       155.580  
  22428376.717 7 117861915.150 7      1947.622    22428376.717 7  91840453.363 7
      1517.628  
  21011981.999 7 110418710.669 7       360.900    21556619.974 7  88270755.231 7
     -2128.460  
  21556619.974 7 113280802.546 7     -2731.524    20701551.287 7  84769391.896 7
       476.490  
 24 01 02 10 00 12.4000000  0  7G32G23G18G27G10G24G15
  22904055.325 7 120361623.109 7      2565.625    20084128.779 7  82241149.940 7
      -641.743  
  20701539.651 7 108787325.118 7       611.477    21011975.132 7  86040525.648 7
       281.167  
  20084128.779 7 105542809.090 7      -823.571    22904055.325 7  93788277.747 7
      1999.188  
  23522609.390 7 123612146.657 7       199.600    23522609.390 7  96321153.240 7
       155.532  
  22428339.655 7 117861720.388 7      1947.618    22428339.655 7  91840301.601 7
      1517.625  
  21011975.132 7 110418674.582 7       360.831    21556671.953 7  88270968.078 7
     -2128.477  
  21556671.953 7 113281075.700 7     -2731.546    20701539.651 7  84769344.248 7
       476.475  
 24 01 02 10 00 12.5000000  0  7G32G23G18G27G10G24G15
  22904006.503 7 120361366.548 7      2565.597    20084144.452 7  82241214.117 7
      -641.792  
  20701528.015 7 108787263.971 7       611.458    21011968.266 7  86040497.534 7
       281.114  
  20084144.452 7 105542891.450 7      -823.634    22904006.503 7  93788077.829 7
      1999.167  
  23522605.592 7 123612126.701 7       199.538    23522605.592 7  96321137.689 7
       155.484  
  22428302.593 7 117861525.626 7      1947.615    22428302.593 7  91840149.838 7
      1517.622  
  21011968.266 7 110418638.502 7       360.763    21556723.933 7  88271180.926 7
     -2128.494  
  21556723.933 7 113281348.855 7     -2731.567    20701528.015 7  84769296.601 7
       476.461  
 24 01 02 10 00 12.6000000  0  7G32G23G18G27G10G24G15
  22903957.682 7 120361109.989 7      2565.570    20084160.126 7  82241278.299 7
      -641.841  
  20701516.379 7 108787202.827 7       611.439    21011961.402 7  86040469.425 7
       281.061  
  20084160.126 7 105542973.817 7      -823.696    22903957.682 7  93787877.914 7
      1999.145  
  23522601.796 7 123612106.750 7       199.476    23522601.796 7  96321122.143 7
       155.436  
  22428265.531 7 117861330.865 7      1947.611    22428265.531 7  91839998.076 7
      1517.619  
  21011961.402 7 110418602.429 7       360.695    21556775.913 7  88271393.777 7
     -2128.511  
  21556775.913 7 113281622.013 7     -2731.589    20701516.379 7  84769248.956 7
       476.446  
 24 01 02 10 00 12.7000000  0  7G32G23G18G27G10G24G15
  22903908.861 7 120360853.434 7      2565.542    20084175.801 7  82241342.485 7
      -641.890  
  20701504.744 7 108787141.684 7       611.420    21011954.538 7  86040441.322 7
       281.007  
  20084175.801 7 105543056.190 7      -823.759    22903908.861 7  93787678.000 7
      1999.124  
  23522598.000 7 123612086.806 7       199.414    23522598.000 7  96321106.602 7
       155.387  
  22428228.469 7 117861136.104 7      1947.608    22428228.469 7  91839846.314 7
      1517.616  
  21011954.538 7 110418566.363 7       360.626    21556827.894 7  88271606.629 7
     -2128.527  
  21556827.894 7 113281895.173 7     -2731.610    20701504.744 7  84769201.312 7
       476.431  
 24 01 02 10 00 12.8000000  0  7G32G23G18G27G10G24G15
  22903860.041 7 120360596.881 7      2565.514    20084191.477 7  82241406.677 7
      -641.939  
  20701493.109 7 108787080.543 7       611.401    21011947.677 7  86040413.224 7
       280.954  
  20084191.477 7 105543138.569 7      -823.822    22903860.041 7  93787478.089 7
      1999.102  
  23522594.206 7 123612066.867 7       199.352    23522594.206 7  96321091.065 7
       155.339  
  22428191.408 7 117860941.343 7      1947.604    22428191.408 7  91839694.553 7
      1517.614  
  21011947.677 7 110418530.304 7       360.558    21556879.875 7  88271819.482 7
     -2128.544  
  21556879.875 7 113282168.335 7     -2731.632    20701493.109 7  84769153.670 7
       476.416  
 24 01 02 10 00 12.9000000  0  7G32G23G18G27G10G24G15
  22903811.221 7 120360340.331 7      2565.487    20084207.154 7  82241470.873 7
      -641.988  
  20701481.475 7 108787019.404 7       611.382    21011940.816 7  86040385.131 7
       280.901  
  20084207.154 7 105543220.954 7      -823.885    22903811.221 7  93787278.180 7
      1999.081  
  23522590.413 7 123612046.935 7       199.290    23522590.413 7  96321075.534 7
       155.291  
  22428154.346 7 117860746.583 7      1947.601    22428154.346 7  91839542.792 7
      1517.611  
  21011940.816 7 110418494.252 7       360.489    21556931.857 7  88272032.337 7
     -2128.561  
  21556931.857 7 113282441.500 7     -2731.653    20701481.475 7  84769106.029 7
       476.402  
 24 01 02 10 00 13.0000000  0  7G32G23G18G27G10G24G15
  22903762.402 7 120360083.787 7      2565.339    20084222.833 7  82241535.074 7
      -642.022  
  20701469.841 7 108786958.267 7       611.349    21011933.956 7  86040357.042 7
       280.936  
  20084222.833 7 105543303.345 7      -823.929    22903762.402 7  93787078.275 7
      1998.966  
  23522586.622 7 123612027.013 7       199.084    23522586.622 7  96321060.010 7
       155.131  
  22428117.285 7 117860551.826 7      1947.481    22428117.285 7  91839391.033 7
      1517.517  
  21011933.956 7 110418458.203 7       360.535    21556983.838 7  88272245.192 7
     -2128.509  
  21556983.838 7 113282714.664 7     -2731.586    20701469.841 7  84769058.390 7
       476.376  
 24 01 02 10 00 13.1000000  0  7G32G23G18G27G10G24G15
  22903713.588 7 120359827.266 7      2565.079    20084238.512 7  82241599.277 7
      -642.043  
  20701458.208 7 108786897.134 7       611.304    21011927.094 7  86040328.942 7
       281.056  
  20084238.512 7 105543385.739 7      -823.955    22903713.588 7  93786878.389 7
      1998.763  
  23522582.837 7 123612007.122 7       198.743    23522582.837 7  96321044.510 7
       154.864  
  22428080.228 7 117860357.089 7      1947.251    22428080.228 7  91839239.290 7
      1517.338  
  21011927.094 7 110418422.142 7       360.688    21557035.817 7  88272458.038 7
     -2128.392  
  21557035.817 7 113282987.815 7     -2731.436    20701458.208 7  84769010.754 7
       476.341  
 24 01 02 10 00 13.2000000  0  7G32G23G18G27G10G24G15
  22903664.778 7 120359570.771 7      2564.819    20084254.192 7  82241663.483 7
      -642.064  
  20701446.576 7 108786836.006 7       611.259    21011920.229 7  86040300.830 7
       281.175  
  20084254.192 7 105543468.136 7      -823.982    22903664.778 7  93786678.523 7
      1998.560  
  23522579.058 7 123611987.264 7       198.401    23522579.058 7  96321029.037 7
       154.598  
  22428043.175 7 117860162.376 7      1947.021    22428043.175 7  91839087.565 7
      1517.159  
  21011920.229 7 110418386.066 7       360.841    21557087.793 7  88272670.871 7
     -2128.275  
  21557087.793 7 113283260.951 7     -2731.287    20701446.576 7  84768963.121 7
       476.305  
 24 01 02 10 00 13.3000000  0  7G32G23G18G27G10G24G15
  22903615.974 7 120359314.302 7      2564.558    20084269.872 7  82241727.690 7
      -642.084  
  20701434.944 7 108786774.882 7       611.213    21011913.361 7  86040272.707 7
       281.295  
  20084269.872 7 105543550.536 7      -824.008    22903615.974 7  93786478.677 7
      1998.357  
  23522575.286 7 123611967.441 7       198.059    23522575.286 7  96321013.591 7
       154.332  
  22428006.127 7 117859967.685 7      1946.791    22428006.127 7  91838935.859 7
      1516.980  
  21011913.361 7 110418349.974 7       360.995    21557139.766 7  88272883.693 7
     -2128.158  
  21557139.766 7 113283534.072 7     -2731.137    20701434.944 7  84768915.493 7
       476.270  
 24 01 02 10 00 13.4000000  0  7G32G23G18G27G10G24G15
  22903567.175 7 120359057.859 7      2564.298    20084285.552 7  82241791.900 7
      -642.105  
  20701423.314 7 108786713.763 7       611.168    21011906.490 7  86040244.571 7
       281.414  
  20084285.552 7 105543632.938 7      -824.035    22903567.175 7  93786278.851 7
      1998.154  
  23522571.521 7 123611947.653 7       197.718    23522571.521 7  96320998.171 7
       154.066  
  22427969.083 7 117859773.017 7      1946.561    22427969.083 7  91838784.169 7
      1516.801  
  21011906.490 7 110418313.867 7       361.148    21557191.737 7  88273096.503 7
     -2128.042  
  21557191.737 7 113283807.178 7     -2730.987    20701423.314 7  84768867.867 7
       476.235  
 24 01 02 10 00 13.5000000  0  7G32G23G18G27G10G24G15
  22903518.379 7 120358801.439 7      2564.157    20084301.233 7  82241856.111 7
      -642.140  
  20701411.684 7 108786652.648 7       611.136    21011899.617 7  86040216.426 7
       281.444  
  20084301.233 7 105543715.343 7      -824.080    22903518.379 7  93786079.044 7
      1998.045  
  23522567.761 7 123611927.894 7       197.520    23522567.761 7  96320982.775 7
       153.912  
  22427932.042 7 117859578.370 7      1946.448    22427932.042 7  91838632.496 7
      1516.712  
  21011899.617 7 110418277.747 7       361.187    21557243.704 7  88273309.303 7
     -2127.993  
  21557243.704 7 113284080.272 7     -2730.925    20701411.684 7  84768820.245 7
       476.210  
 24 01 02 10 00 13.6000000  0  7G32G23G18G27G10G24G15
  22903469.585 7 120358545.025 7      2564.130    20084316.916 7  82241920.328 7
      -642.189  
  20701400.055 7 108786591.536 7       611.117    21011892.744 7  86040188.285 7
       281.391  
  20084316.916 7 105543797.754 7      -824.143    22903469.585 7  93785879.240 7
      1998.023  
  23522564.003 7 123611908.145 7       197.458    23522564.003 7  96320967.386 7
       153.863  
  22427895.003 7 117859383.725 7      1946.444    22427895.003 7  91838480.825 7
      1516.710  
  21011892.744 7 110418241.632 7       361.119    21557295.672 7  88273522.103 7
     -2128.010  
  21557295.672 7 113284353.365 7     -2730.946    20701400.055 7  84768772.625 7
       476.195  
 24 01 02 10 00 13.7000000  0  7G32G23G18G27G10G24G15
  22903420.792 7 120358288.613 7      2564.102    20084332.599 7  82241984.549 7
      -642.238  
  20701388.426 7 108786530.425 7       611.098    21011885.873 7  86040160.148 7
       281.338  
  20084332.599 7 105543880.172 7      -824.206    22903420.792 7  93785679.439 7
      1998.002  
  23522560.246 7 123611888.403 7       197.396    23522560.246 7  96320952.002 7
       153.815  
  22427857.963 7 117859189.081 7      1946.441    22427857.963 7  91838329.154 7
      1516.707  
  21011885.873 7 110418205.523 7       361.050    21557347.641 7  88273734.905 7
     -2128.027  
  21557347.641 7 113284626.461 7     -2730.968    20701388.426 7  84768725.006 7
       476.180  
 24 01 02 10 00 13.8000000  0  7G32G23G18G27G10G24G15
  22903371.999 7 120358032.205 7      2564.074    20084348.284 7  82242048.776 7
      -642.287  
  20701376.797 7 108786469.316 7       611.079    21011879.003 7  86040132.017 7
       281.284  
  20084348.284 7 105543962.595 7      -824.268    22903371.999 7  93785479.640 7
      1997.980  
  23522556.490 7 123611868.666 7       197.334    23522556.490 7  96320936.623 7
       153.767  
  22427820.924 7 117858994.437 7      1946.437    22427820.924 7  91838177.484 7
      1516.704  
  21011879.003 7 110418169.422 7       360.982    21557399.610 7  88273947.708 7
     -2128.044  
  21557399.610 7 113284899.559 7     -2730.989    20701376.797 7  84768677.389 7
       476.166  
 24 01 02 10 00 13.9000000  0  7G32G23G18G27G10G24G15
  22903323.207 7 120357775.799 7      2564.047    20084363.970 7  82242113.007 7
      -642.336  
  20701365.169 7 108786408.209 7       611.060    21011872.134 7  86040103.891 7
       281.231  
  20084363.970 7 105544045.025 7      -824.331    22903323.207 7  93785279.843 7
      1997.959  
  23522552.735 7 123611848.936 7       197.272    23522552.735 7  96320921.249 7
       153.719  
  22427783.884 7 117858799.794 7      1946.434    22427783.884 7  91838025.813 7
      1516.701  
  21011872.134 7 110418133.327 7       360.913    21557451.579 7  88274160.513 7
     -2128.060  
  21557451.579 7 113285172.659 7     -2731.011    20701365.169 7  84768629.773 7
       476.151  
 24 01 02 10 00 14.0000000  0  7G32G23G18G27G10G24G15
  22903274.415 7 120357519.395 7      2564.019    20084379.657 7  82242177.243 7
      -642.385  
  20701353.541 7 108786347.104 7       611.041    21011865.267 7  86040075.771 7
       281.178  
  20084379.657 7 105544127.462 7      -824.394    22903274.415 7  93785080.048 7
      1997.937  
  23522548.982 7 123611829.212 7       197.210    23522548.982 7  96320905.879 7
       153.670  
  22427746.845 7 117858605.150 7      1946.430    22427746.845 7  91837874.143 7
      1516.699  
  21011865.267 7 110418097.239 7       360.845    21557503.548 7  88274373.320 7
     -2128.077  
  21557503.548 7 113285445.761 7     -2731.032    20701353.541 7  84768582.159 7
       476.136  
 24 01 02 10 00 14.1000000  0  7G32G23G18G27G10G24G15
  22903225.623 7 120357262.995 7      2563.991    20084395.345 7  82242241.484 7
      -642.434  
  20701341.913 7 108786286.001 7       611.022    21011858.401 7  86040047.656 7
       281.125  
  20084395.345 7 105544209.904 7      -824.457    22903225.623 7  93784880.256 7
      1997.915  
  23522545.230 7 123611809.494 7       197.148    23522545.230 7  96320890.515 7
       153.622  
  22427709.806 7 117858410.508 7      1946.427    22427709.806 7  91837722.473 7
      1516.696  
  21011858.401 7 110418061.158 7       360.776    21557555.518 7  88274586.129 7
     -2128.094  
  21557555.518 7 113285718.865 7     -2731.054    20701341.913 7  84768534.546 7
       476.121  
 24 01 02 10 00 14.2000000  0  7G32G23G18G27G10G24G15
  22903176.832 7 120357006.597 7      2563.972    20084411.035 7  82242305.729 7
      -642.480  
  20701330.286 7 108786224.900 7       610.996    21011851.536 7  86040019.546 7
       281.071  
  20084411.035 7 105544292.353 7      -824.516    22903176.832 7  93784680.465 7
      1997.900  
  23522541.479 7 123611789.782 7       197.081    23522541.479 7  96320875.155 7
       153.569  
  22427672.766 7 117858215.865 7      1946.416    22427672.766 7  91837570.804 7
      1516.688  
  21011851.536 7 110418025.084 7       360.708    21557607.489 7  88274798.939 7
     -2128.117  
  21557607.489 7 113285991.972 7     -2731.084    20701330.286 7  84768486.935 7
       476.101  
 24 01 02 10 00 14.3000000  0  7G32G23G18G27G10G24G15
  22903128.041 7 120356750.196 7      2564.090    20084426.725 7  82242369.978 7
      -642.487  
  20701318.660 7 108786163.806 7       610.842    21011844.673 7  86039991.441 7
       281.019  
  20084426.725 7 105544374.806 7      -824.526    22903128.041 7  93784480.672 7
      1997.992  
  23522537.730 7 123611770.081 7       196.915    23522537.730 7  96320859.803 7
       153.440  
  22427635.728 7 117858021.228 7      1946.297    22427635.728 7  91837419.139 7
      1516.595  
  21011844.673 7 110417989.016 7       360.641    21557659.461 7  88275011.756 7
     -2128.259  
  21557659.461 7 113286265.087 7     -2731.265    20701318.660 7  84768439.329 7
       475.981  
 24 01 02 10 00 14.4000000  0  7G32G23G18G27G10G24G15
  22903079.244 7 120356493.767 7      2564.555    20084442.414 7  82242434.224 7
      -642.396  
  20701307.040 7 108786102.742 7       610.369    21011837.811 7  86039963.342 7
       280.970  
  20084442.414 7 105544457.254 7      -824.408    22903079.244 7  93784280.858 7
      1998.355  
  23522533.986 7 123611750.407 7       196.502    23522533.986 7  96320844.473 7
       153.119  
  22427598.695 7 117857826.615 7      1945.902    22427598.695 7  91837267.492 7
      1516.287  
  21011837.811 7 110417952.956 7       360.579    21557711.440 7  88275224.601 7
     -2128.696  
  21557711.440 7 113286538.237 7     -2731.826    20701307.040 7  84768391.747 7
       475.612  
 24 01 02 10 00 14.5000000  0  7G32G23G18G27G10G24G15
  22903030.434 7 120356237.267 7      2565.545    20084458.100 7  82242498.453 7
      -642.154  
  20701295.433 7 108786041.748 7       609.410    21011830.950 7  86039935.247 7
       280.926  
  20084458.100 7 105544539.681 7      -824.098    22903030.434 7  93784080.988 7
      1999.126  
  23522530.253 7 123611730.793 7       195.715    23522530.253 7  96320829.189 7
       152.505  
  22427561.672 7 117857632.061 7      1945.089    22427561.672 7  91837115.892 7
      1515.654  
  21011830.950 7 110417916.901 7       360.522    21557763.435 7  88275437.510 7
     -2129.581  
  21557763.435 7 113286811.471 7     -2732.962    20701295.433 7  84768344.219 7
       474.865  
 24 01 02 10 00 14.6000000  0  7G32G23G18G27G10G24G15
  22902981.599 7 120355980.637 7      2567.186    20084473.777 7  82242562.648 7
      -641.726  
  20701283.851 7 108785980.880 7       607.851    21011824.090 7  86039907.157 7
       280.888  
  20084473.777 7 105544622.065 7      -823.548    22902981.599 7  93783881.016 7
      2000.405  
  23522526.540 7 123611711.279 7       194.464    23522526.540 7  96320813.984 7
       151.531  
  22427524.670 7 117857437.614 7      1943.759    22427524.670 7  91836964.375 7
      1514.617  
  21011824.090 7 110417880.851 7       360.473    21557815.457 7  88275650.535 7
     -2131.023  
  21557815.457 7 113287084.854 7     -2734.812    20701283.851 7  84768296.789 7
       473.650  
 24 01 02 10 00 14.7000000  0  7G32G23G18G27G10G24G15
  22902932.725 7 120355723.807 7      2569.534    20084489.441 7  82242626.791 7
      -641.096  
  20701272.304 7 108785920.200 7       605.639    21011817.231 7  86039879.069 7
       280.856  
  20084489.441 7 105544704.382 7      -822.740    22902932.725 7  93783680.888 7
      2002.234  
  23522522.856 7 123611691.917 7       192.710    23522522.856 7  96320798.896 7
       150.164  
  22427487.699 7 117857243.328 7      1941.867    22427487.699 7  91836812.983 7
      1513.143  
  21011817.231 7 110417844.806 7       360.431    21557867.523 7  88275863.735 7
     -2133.067  
  21557867.523 7 113287358.460 7     -2737.436    20701272.304 7  84768249.506 7
       471.926  
 24 01 02 10 00 14.8000000  0  7G32G23G18G27G10G24G15
  22902883.802 7 120355466.711 7      2572.451    20084505.088 7  82242690.862 7
      -640.304  
  20701260.804 7 108785859.769 7       602.901    21011810.372 7  86039850.985 7
       280.828  
  20084505.088 7 105544786.606 7      -821.723    22902883.802 7  93783480.554 7
      2004.507  
  23522519.209 7 123611672.751 7       190.551    23522519.209 7  96320783.962 7
       148.481  
  22427450.768 7 117857049.256 7      1939.522    22427450.768 7  91836661.758 7
      1511.316  
  21011810.372 7 110417808.765 7       360.396    21557919.645 7  88276077.165 7
     -2135.597  
  21557919.645 7 113287632.361 7     -2740.683    20701260.804 7  84768202.418 7
       469.793  
 24 01 02 10 00 14.9000000  0  7G32G23G18G27G10G24G15
  22902834.819 7 120355209.307 7      2575.652    20084520.714 7  82242754.849 7
      -639.430  
  20701249.360 7 108785799.628 7       599.901    21011803.514 7  86039822.904 7
       280.803  
  20084520.714 7 105544868.723 7      -820.602    22902834.819 7  93783279.979 7
      2007.001  
  23522515.605 7 123611653.813 7       188.189    23522515.605 7  96320769.205 7
       146.641  
  22427413.885 7 117856855.432 7      1936.951    22427413.885 7  91836510.726 7
      1509.312  
  21011803.514 7 110417772.726 7       360.364    21557971.832 7  88276290.862 7
     -2138.371  
  21557971.832 7 113287906.607 7     -2744.242    20701249.360 7  84768155.554 7
       467.455  
 24 01 02 10 00 15.0000000  0  7G32G23G18G27G10G24G15
  22902785.776 7 120354951.582 7      2578.820    20084536.319 7  82242818.748 7
      -638.565  
  20701237.972 7 108785739.788 7       596.931    21011796.657 7  86039794.825 7
       280.778  
  20084536.319 7 105544950.727 7      -819.491    22902785.776 7  93783079.155 7
      2009.470  
  23522512.046 7 123611635.112 7       185.850    23522512.046 7  96320754.633 7
       144.818  
  22427377.050 7 117856661.865 7      1934.405    22427377.050 7  91836359.895 7
      1507.328  
  21011796.657 7 110417736.692 7       360.332    21558024.087 7  88276504.838 7
     -2141.117  
  21558024.087 7 113288181.209 7     -2747.766    20701237.972 7  84768108.926 7
       465.141  
 24 01 02 10 00 15.1000000  0  7G32G23G18G27G10G24G15
  22902736.675 7 120354693.554 7      2581.644    20084551.904 7  82242882.565 7
      -637.798  
  20701226.639 7 108785680.231 7       594.279    21011789.801 7  86039766.748 7
       280.749  
  20084551.904 7 105545032.625 7      -818.507    22902736.675 7  93782878.094 7
      2011.671  
  23522508.530 7 123611616.635 7       183.757    23522508.530 7  96320740.235 7
       143.187  
  22427340.262 7 117856468.542 7      1932.133    22427340.262 7  91836209.253 7
      1505.558  
  21011789.801 7 110417700.660 7       360.295    21558076.406 7  88276719.076 7
     -2143.568  
  21558076.406 7 113288456.147 7     -2750.913    20701226.639 7  84768062.518 7
       463.074  
 24 01 02 10 00 15.2000000  0  7G32G23G18G27G10G24G15
  22902687.526 7 120354435.275 7      2583.639    20084567.472 7  82242946.313 7
      -637.083  
  20701215.352 7 108785620.915 7       591.922    21011782.944 7  86039738.673 7
       281.054  
  20084567.472 7 105545114.435 7      -817.590    22902687.526 7  93782676.837 7
      2013.225  
  23522505.051 7 123611598.350 7       181.387    23522505.051 7  96320725.987 7
       141.340  
  22427303.513 7 117856275.426 7      1929.719    22427303.513 7  91836058.773 7
      1503.677  
  21011782.944 7 110417664.630 7       360.686    21558128.779 7  88276933.534 7
     -2145.439  
  21558128.779 7 113288731.368 7     -2753.313    20701215.352 7  84768016.297 7
       461.238  
 24 01 02 10 00 15.3000000  0  7G32G23G18G27G10G24G15
  22902638.363 7 120354176.923 7      2583.276    20084583.012 7  82243009.947 7
      -635.626  
  20701204.125 7 108785561.917 7       588.139    21011776.045 7  86039710.423 7
       283.948  
  20084583.012 7 105545196.099 7      -815.721    22902638.363 7  93782475.524 7
      2012.942  
  23522501.669 7 123611580.583 7       174.040    23522501.669 7  96320712.142 7
       135.616  
  22427266.856 7 117856082.792 7      1923.036    22427266.856 7  91835908.669 7
      1498.469  
  21011776.045 7 110417628.376 7       364.400    21558181.184 7  88277148.124 7
     -2146.269  
  21558181.184 7 113289006.760 7     -2754.378    20701204.125 7  84767970.325 7
       458.290  
 24 01 02 10 00 15.4000000  0  7G32G23G18G27G10G24G15
  22902589.214 7 120353918.642 7      2582.229    20084598.519 7  82243073.444 7
      -634.348  
  20701192.964 7 108785503.268 7       584.945    21011769.076 7  86039681.883 7
       286.867  
  20084598.519 7 105545277.587 7      -814.080    22902589.214 7  93782274.267 7
      2012.126  
  23522498.424 7 123611563.529 7       167.101    23522498.424 7  96320698.854 7
       130.208  
  22427230.322 7 117855890.803 7      1916.822    22427230.322 7  91835759.067 7
      1493.628  
  21011769.076 7 110417591.749 7       368.147    21558233.602 7  88277362.769 7
     -2146.527  
  21558233.602 7 113289282.220 7     -2754.709    20701192.964 7  84767924.624 7
       455.801  
 24 01 02 10 00 15.5000000  0  7G32G23G18G27G10G24G15
  22902540.090 7 120353660.495 7      2580.637    20084613.996 7  82243136.821 7
      -633.208  
  20701181.860 7 108785444.913 7       582.211    21011762.034 7  86039653.049 7
       289.813  
  20084613.996 7 105545358.920 7      -812.616    22902540.090 7  93782073.113 7
      2010.886  
  23522495.308 7 123611547.152 7       160.470    23522495.308 7  96320686.093 7
       125.042  
  22427193.902 7 117855699.416 7      1910.969    22427193.902 7  91835609.934 7
      1489.067  
  21011762.034 7 110417554.746 7       371.927    21558286.021 7  88277577.415 7
     -2146.331  
  21558286.021 7 113289557.682 7     -2754.458    20701181.860 7  84767879.153 7
       453.671  
 24 01 02 10 00 15.6000000  0  7G32G23G18G27G10G24G15
  22902491.001 7 120353402.527 7      2578.686    20084629.446 7  82243200.089 7
      -632.153  
  20701170.804 7 108785386.816 7       579.765    21011754.920 7  86039623.919 7
       292.786  
  20084629.446 7 105545440.114 7      -811.263    22902491.001 7  93781872.099 7
      2009.366  
  23522492.316 7 123611531.429 7       154.016    23522492.316 7  96320673.841 7
       120.012  
  22427157.591 7 117855508.602 7      1905.328    22427157.591 7  91835461.248 7
      1484.671  
  21011754.920 7 110417517.363 7       375.742    21558338.431 7  88277792.025 7
     -2145.840  
  21558338.431 7 113289833.099 7     -2753.828    20701170.804 7  84767833.882 7
       451.765  
 24 01 02 10 00 15.7000000  0  7G32G23G18G27G10G24G15
  22902441.949 7 120353144.761 7      2576.798    20084644.872 7  82243263.253 7
      -631.248  
  20701159.793 7 108785328.955 7       577.689    21011747.734 7  86039594.492 7
       295.450  
  20084644.872 7 105545521.175 7      -810.102    22902441.949 7  93781671.243 7
      2007.895  
  23522489.445 7 123611516.344 7       148.307    23522489.445 7  96320662.086 7
       115.564  
  22427121.387 7 117855318.345 7      1900.366    22427121.387 7  91835312.996 7
      1480.804  
  21011747.734 7 110417479.599 7       379.161    21558390.827 7  88278006.579 7
     -2145.288  
  21558390.827 7 113290108.443 7     -2753.119    20701159.793 7  84767788.796 7
       450.148  
 24 01 02 10 00 15.8000000  0  7G32G23G18G27G10G24G15
  22902392.917 7 120352887.096 7      2576.510    20084660.288 7  82243326.380 7
      -631.285  
  20701148.800 7 108785271.186 7       577.697    21011740.518 7  86039564.943 7
       295.548  
  20084660.288 7 105545602.188 7      -810.150    22902392.917 7  93781470.464 7
      2007.670  
  23522486.626 7 123611501.527 7       148.036    23522486.626 7  96320650.541 7
       115.353  
  22427085.226 7 117855128.317 7      1900.204    22427085.226 7  91835164.922 7
      1480.678  
  21011740.518 7 110417441.676 7       379.286    21558443.216 7  88278221.101 7
     -2145.140  
  21558443.216 7 113290383.746 7     -2752.930    20701148.800 7  84767743.781 7
       450.154  
 24 01 02 10 00 15.9000000  0  7G32G23G18G27G10G24G15
  22902343.891 7 120352629.459 7      2576.223    20084675.705 7  82243389.510 7
      -631.323  
  20701137.807 7 108785213.416 7       577.705    21011733.299 7  86039535.383 7
       295.644  
  20084675.705 7 105545683.205 7      -810.198    22902343.891 7  93781269.709 7
      2007.447  
  23522483.811 7 123611486.737 7       147.767    23522483.811 7  96320639.016 7
       115.143  
  22427049.067 7 117854938.304 7      1900.043    22427049.067 7  91835016.861 7
      1480.553  
  21011733.299 7 110417403.742 7       379.410    21558495.600 7  88278435.607 7
     -2144.994  
  21558495.600 7 113290659.029 7     -2752.743    20701137.807 7  84767698.766 7
       450.160  
 24 01 02 10 00 16.0000000  0  7G32G23G18G27G10G24G15
  22902294.870 7 120352371.851 7      2575.938    20084691.123 7  82243452.645 7
      -631.361  
  20701126.814 7 108785155.645 7       577.713    21011726.078 7  86039505.814 7
       295.740  
  20084691.123 7 105545764.227 7      -810.246    22902294.870 7  93781068.975 7
      2007.225  
  23522481.002 7 123611471.974 7       147.500    23522481.002 7  96320627.512 7
       114.935  
  22427012.912 7 117854748.308 7      1899.884    22427012.912 7  91834868.812 7
      1480.429  
  21011726.078 7 110417365.794 7       379.533    21558547.982 7  88278650.100 7
     -2144.849  
  21558547.982 7 113290934.294 7     -2752.556    20701126.814 7  84767653.749 7
       450.166  
 24 01 02 10 00 16.1000000  0  7G32G23G18G27G10G24G15
  22902245.854 7 120352114.272 7      2575.655    20084706.542 7  82243515.782 7
      -631.398  
  20701115.820 7 108785097.873 7       577.720    21011718.854 7  86039476.235 7
       295.835  
  20084706.542 7 105545845.254 7      -810.295    22902245.854 7  93780868.264 7
      2007.004  
  23522478.198 7 123611457.237 7       147.233    23522478.198 7  96320616.029 7
       114.727  
  22426976.760 7 117854558.328 7      1899.726    22426976.760 7  91834720.775 7
      1480.306  
  21011718.854 7 110417327.835 7       379.654    21558600.359 7  88278864.577 7
     -2144.705  
  21558600.359 7 113291209.541 7     -2752.372    20701115.820 7  84767608.733 7
       450.171  
 24 01 02 10 00 16.2000000  0  7G32G23G18G27G10G24G15
  22902196.843 7 120351856.720 7      2575.374    20084721.962 7  82243578.924 7
      -631.436  
  20701104.826 7 108785040.101 7       577.727    21011711.629 7  86039446.647 7
       295.928  
  20084721.962 7 105545926.286 7      -810.343    22902196.843 7  93780667.574 7
      2006.785  
  23522475.398 7 123611442.527 7       146.969    23522475.398 7  96320604.566 7
       114.521  
  22426940.611 7 117854368.363 7      1899.568    22426940.611 7  91834572.750 7
      1480.183  
  21011711.629 7 110417289.863 7       379.774    21558652.733 7  88279079.041 7
     -2144.563  
  21558652.733 7 113291484.769 7     -2752.189    20701104.826 7  84767563.715 7
       450.177  
 24 01 02 10 00 16.3000000  0  7G32G23G18G27G10G24G15
  22902147.838 7 120351599.197 7      2575.095    20084737.383 7  82243642.070 7
      -631.474  
  20701093.832 7 108784982.328 7       577.734    21011704.401 7  86039417.049 7
       296.021  
  20084737.383 7 105546007.323 7      -810.392    22902147.838 7  93780466.907 7
      2006.567  
  23522472.604 7 123611427.843 7       146.706    23522472.604 7  96320593.125 7
       114.316  
  22426904.465 7 117854178.414 7      1899.412    22426904.465 7  91834424.738 7
      1480.061  
  21011704.401 7 110417251.880 7       379.893    21558705.104 7  88279293.490 7
     -2144.421  
  21558705.104 7 113291759.979 7     -2752.007    20701093.832 7  84767518.697 7
       450.183  
 24 01 02 10 00 16.4000000  0  7G32G23G18G27G10G24G15
  22902098.839 7 120351341.701 7      2574.817    20084752.804 7  82243705.219 7
      -631.512  
  20701082.839 7 108784924.554 7       577.741    21011697.170 7  86039387.443 7
       296.112  
  20084752.804 7 105546088.364 7      -810.440    22902098.839 7  93780266.261 7
      2006.351  
  23522469.815 7 123611413.186 7       146.444    23522469.815 7  96320581.703 7
       114.112  
  22426868.322 7 117853988.481 7      1899.257    22426868.322 7  91834276.738 7
      1479.941  
  21011697.170 7 110417213.885 7       380.010    21558757.471 7  88279507.925 7
     -2144.281  
  21558757.471 7 113292035.170 7     -2751.827    20701082.839 7  84767473.679 7
       450.188  
 24 01 02 10 00 16.5000000  0  7G32G23G18G27G10G24G15
  22902049.844 7 120351084.233 7      2574.541    20084768.227 7  82243768.372 7
      -631.550  
  20701071.844 7 108784866.780 7       577.748    21011689.938 7  86039357.827 7
       296.202  
  20084768.227 7 105546169.411 7      -810.489    22902049.844 7  93780065.636 7
      2006.136  
  23522467.031 7 123611398.554 7       146.184    23522467.031 7  96320570.302 7
       113.909  
  22426832.182 7 117853798.563 7      1899.103    22426832.182 7  91834128.750 7
      1479.821  
  21011689.938 7 110417175.878 7       380.126    21558809.835 7  88279722.346 7
     -2144.141  
  21558809.835 7 113292310.344 7     -2751.648    20701071.844 7  84767428.660 7
       450.193  
 24 01 02 10 00 16.6000000  0  7G32G23G18G27G10G24G15
  22902000.855 7 120350826.793 7      2574.267    20084783.651 7  82243831.529 7
      -631.588  
  20701060.850 7 108784809.005 7       577.755    21011682.703 7  86039328.202 7
       296.291  
  20084783.651 7 105546250.462 7      -810.538    22902000.855 7  93779865.033 7
      2005.923  
  23522464.251 7 123611383.949 7       145.925    23522464.251 7  96320558.921 7
       113.708  
  22426796.044 7 117853608.660 7      1898.950    22426796.044 7  91833980.774 7
      1479.702  
  21011682.703 7 110417137.860 7       380.241    21558862.196 7  88279936.753 7
     -2144.003  
  21558862.196 7 113292585.500 7     -2751.471    20701060.850 7  84767383.640 7
       450.198  
 24 01 02 10 00 16.7000000  0  7G32G23G18G27G10G24G15
  22901951.871 7 120350569.380 7      2573.995    20084799.075 7  82243894.690 7
      -631.626  
  20701049.856 7 108784751.229 7       577.761    21011675.466 7  86039298.569 7
       296.380  
  20084799.075 7 105546331.519 7      -810.587    22901951.871 7  93779664.452 7
      2005.711  
  23522461.477 7 123611369.369 7       145.667    23522461.477 7  96320547.561 7
       113.507  
  22426759.910 7 117853418.772 7      1898.799    22426759.910 7  91833832.810 7
      1479.583  
  21011675.466 7 110417099.830 7       380.354    21558914.553 7  88280151.147 7
     -2143.866  
  21558914.553 7 113292860.638 7     -2751.295    20701049.856 7  84767338.620 7
       450.203  
 24 01 02 10 00 16.8000000  0  7G32G23G18G27G10G24G15
  22901902.892 7 120350311.994 7      2573.725    20084814.500 7  82243957.854 7
      -631.664  
  20701038.861 7 108784693.452 7       577.767    21011668.227 7  86039268.926 7
       296.467  
  20084814.500 7 105546412.580 7      -810.636    22901902.892 7  93779463.891 7
      2005.500  
  23522458.707 7 123611354.816 7       145.411    23522458.707 7  96320536.220 7
       113.307  
  22426723.779 7 117853228.900 7      1898.648    22426723.779 7  91833684.857 7
      1479.466  
  21011668.227 7 110417061.789 7       380.466    21558966.906 7  88280365.527 7
     -2143.730  
  21558966.906 7 113293135.759 7     -2751.120    20701038.861 7  84767293.599 7
       450.208  
 24 01 02 10 00 16.9000000  0  7G32G23G18G27G10G24G15
  22901853.918 7 120350054.635 7      2573.456    20084829.927 7  82244021.023 7
      -631.703  
  20701027.867 7 108784635.675 7       577.773    21011660.986 7  86039239.275 7
       296.553  
  20084829.927 7 105546493.646 7      -810.685    22901853.918 7  93779263.352 7
      2005.290  
  23522455.943 7 123611340.287 7       145.157    23522455.943 7  96320524.899 7
       113.109  
  22426687.650 7 117853039.043 7      1898.498    22426687.650 7  91833536.916 7
      1479.349  
  21011660.986 7 110417023.737 7       380.577    21559019.257 7  88280579.893 7
     -2143.595  
  21559019.257 7 113293410.862 7     -2750.947    20701027.867 7  84767248.578 7
       450.213  
 24 01 02 10 00 17.0000000  0  7G32G23G18G27G10G24G15
  22901804.949 7 120349797.302 7      2573.189    20084845.354 7  82244084.195 7
      -631.741  
  20701016.872 7 108784577.898 7       577.779    21011653.743 7  86039209.616 7
       296.638  
  20084845.354 7 105546574.717 7      -810.734    22901804.949 7  93779062.833 7
      2005.082  
  23522453.183 7 123611325.784 7       144.903    23522453.183 7  96320513.598 7
       112.912  
  22426651.524 7 117852849.200 7      1898.350    22426651.524 7  91833388.987 7
      1479.234  
  21011653.743 7 110416985.674 7       380.686    21559071.604 7  88280794.246 7
     -2143.461  
  21559071.604 7 113293685.949 7     -2750.775    20701016.872 7  84767203.557 7
       450.218  
 24 01 02 10 00 17.1000000  0  7G32G23G18G27G10G24G15
  22901755.986 7 120349539.997 7      2572.924    20084860.782 7  82244147.371 7
      -631.779  
  20701005.877 7 108784520.119 7       577.785    21011646.498 7  86039179.948 7
       296.723  
  20084860.782 7 105546655.793 7      -810.783    22901755.986 7  93778862.335 7
      2004.875  
  23522450.428 7 123611311.307 7       144.651    23522450.428 7  96320502.317 7
       112.715  
  22426615.401 7 117852659.373 7      1898.202    22426615.401 7  91833241.070 7
      1479.119  
  21011646.498 7 110416947.600 7       380.794    21559123.948 7  88281008.585 7
     -2143.329  
  21559123.948 7 113293961.017 7     -2750.605    20701005.877 7  84767158.535 7
       450.222  
 24 01 02 10 00 17.2000000  0  7G32G23G18G27G10G24G15
  22901707.027 7 120349282.718 7      2572.660    20084876.212 7  82244210.551 7
      -631.818  
  20700994.882 7 108784462.341 7       577.791    21011639.251 7  86039150.271 7
       296.806  
  20084876.212 7 105546736.873 7      -810.833    22901707.027 7  93778661.858 7
      2004.670  
  23522447.678 7 123611296.854 7       144.401    23522447.678 7  96320491.055 7
       112.520  
  22426579.281 7 117852469.560 7      1898.056    22426579.281 7  91833093.164 7
      1479.005  
  21011639.251 7 110416909.515 7       380.901    21559176.289 7  88281222.911 7
     -2143.197  
  21559176.289 7 113294236.069 7     -2750.436    20700994.882 7  84767113.512 7
       450.226  
 24 01 02 10 00 17.3000000  0  7G32G23G18G27G10G24G15
  22901658.073 7 120349025.465 7      2572.398    20084891.642 7  82244273.734 7
      -631.856  
  20700983.887 7 108784404.561 7       577.796    21011632.001 7  86039120.587 7
       296.888  
  20084891.642 7 105546817.959 7      -810.882    22901658.073 7  93778461.401 7
      2004.466  
  23522444.932 7 123611282.426 7       144.152    23522444.932 7  96320479.813 7
       112.326  
  22426543.163 7 117852279.762 7      1897.910    22426543.163 7  91832945.269 7
      1478.891  
  21011632.001 7 110416871.420 7       381.006    21559228.626 7  88281437.224 7
     -2143.066  
  21559228.626 7 113294511.105 7     -2750.268    20700983.887 7  84767068.489 7
       450.231  
 24 01 02 10 00 17.4000000  0  7G32G23G18G27G10G24G15
  22901609.125 7 120348768.238 7      2572.138    20084907.073 7  82244336.922 7
      -631.895  
  20700972.892 7 108784346.781 7       577.801    21011624.750 7  86039090.894 7
       296.969  
  20084907.073 7 105546899.050 7      -810.932    22901609.125 7  93778260.965 7
      2004.263  
  23522442.191 7 123611268.023 7       143.904    23522442.191 7  96320468.590 7
       112.133  
  22426507.049 7 117852089.978 7      1897.766    22426507.049 7  91832797.385 7
      1478.779  
  21011624.750 7 110416833.314 7       381.110    21559280.960 7  88281651.525 7
     -2142.937  
  21559280.960 7 113294786.123 7     -2750.102    20700972.892 7  84767023.466 7
       450.235  
 24 01 02 10 00 17.5000000  0  7G32G23G18G27G10G24G15
  22901560.181 7 120348511.037 7      2571.879    20084922.505 7  82244400.113 7
      -631.933  
  20700961.897 7 108784289.001 7       577.807    21011617.497 7  86039061.193 7
       297.049  
  20084922.505 7 105546980.145 7      -810.981    22901560.181 7  93778060.549 7
      2004.062  
  23522439.455 7 123611253.646 7       143.657    23522439.455 7  96320457.386 7
       111.941  
  22426470.937 7 117851900.208 7      1897.623    22426470.937 7  91832649.513 7
      1478.667  
  21011617.497 7 110416795.198 7       381.213    21559333.291 7  88281865.812 7
     -2142.808  
  21559333.291 7 113295061.125 7     -2749.937    20700961.897 7  84766978.442 7
       450.239  
 24 01 02 10 00 17.6000000  0  7G32G23G18G27G10G24G15
  22901511.242 7 120348253.862 7      2571.622    20084937.938 7  82244463.309 7
      -631.972  
  20700950.901 7 108784231.220 7       577.812    21011610.242 7  86039031.484 7
       297.129  
  20084937.938 7 105547061.246 7      -811.031    22901511.242 7  93777860.152 7
      2003.861  
  23522436.724 7 123611239.292 7       143.412    23522436.724 7  96320446.202 7
       111.750  
  22426434.828 7 117851710.453 7      1897.480    22426434.828 7  91832501.652 7
      1478.556  
  21011610.242 7 110416757.071 7       381.315    21559385.619 7  88282080.086 7
     -2142.681  
  21559385.619 7 113295336.111 7     -2749.773    20700950.901 7  84766933.418 7
       450.243  
 24 01 02 10 00 17.7000000  0  7G32G23G18G27G10G24G15
  22901462.308 7 120347996.713 7      2571.367    20084953.371 7  82244526.508 7
      -632.011  
  20700939.906 7 108784173.439 7       577.816    21011602.984 7  86039001.767 7
       297.207  
  20084953.371 7 105547142.352 7      -811.081    22901462.308 7  93777659.776 7
      2003.662  
  23522433.997 7 123611224.963 7       143.168    23522433.997 7  96320435.036 7
       111.560  
  22426398.721 7 117851520.712 7      1897.339    22426398.721 7  91832353.802 7
      1478.446  
  21011602.984 7 110416718.934 7       381.416    21559437.944 7  88282294.348 7
     -2142.554  
  21559437.944 7 113295611.080 7     -2749.611    20700939.906 7  84766888.394 7
       450.246  
 24 01 02 10 00 17.8000000  0  7G32G23G18G27G10G24G15
  22901413.379 7 120347739.589 7      2571.113    20084968.806 7  82244589.711 7
      -632.050  
  20700928.910 7 108784115.657 7       577.821    21011595.725 7  86038972.043 7
       297.284  
  20084968.806 7 105547223.462 7      -811.131    22901413.379 7  93777459.420 7
      2003.465  
  23522431.275 7 123611210.658 7       142.926    23522431.275 7  96320423.890 7
       111.371  
  22426362.617 7 117851330.985 7      1897.198    22426362.617 7  91832205.963 7
      1478.336  
  21011595.725 7 110416680.788 7       381.515    21559490.266 7  88282508.597 7
     -2142.429  
  21559490.266 7 113295886.033 7     -2749.450    20700928.910 7  84766843.369 7
       450.250  
 24 01 02 10 00 17.9000000  0  7G32G23G18G27G10G24G15
  22901364.455 7 120347482.490 7      2570.861    20084984.242 7  82244652.918 7
      -632.089  
  20700917.915 7 108784057.875 7       577.826    21011588.464 7  86038942.310 7
       297.361  
  20084984.242 7 105547304.578 7      -811.181    22901364.455 7  93777259.083 7
      2003.268  
  23522428.558 7 123611196.378 7       142.685    23522428.558 7  96320412.762 7
       111.183  
  22426326.516 7 117851141.273 7      1897.059    22426326.516 7  91832058.134 7
      1478.228  
  21011588.464 7 110416642.632 7       381.613    21559542.585 7  88282722.834 7
     -2142.304  
  21559542.585 7 113296160.970 7     -2749.290    20700917.915 7  84766798.344 7
       450.254  
 24 01 02 10 00 18.0000000  0  7G32G23G18G27G10G24G15
  22901315.536 7 120347225.417 7      2570.610    20084999.679 7  82244716.129 7
      -632.128  
  20700906.919 7 108784000.092 7       577.830    21011581.202 7  86038912.570 7
       297.436  
  20084999.679 7 105547385.698 7      -811.230    22901315.536 7  93777058.766 7
      2003.073  
  23522425.845 7 123611182.121 7       142.445    23522425.845 7  96320401.653 7
       110.996  
  22426290.418 7 117850951.574 7      1896.921    22426290.418 7  91831910.317 7
      1478.120  
  21011581.202 7 110416604.465 7       381.710    21559594.901 7  88282937.058 7
     -2142.181  
  21559594.901 7 113296435.891 7     -2749.132    20700906.919 7  84766753.318 7
       450.257  
 24 01 02 10 00 18.1000000  0  7G32G23G18G27G10G24G15
  22901266.621 7 120346968.368 7      2570.362    20085015.116 7  82244779.343 7
      -632.167  
  20700895.923 7 108783942.309 7       577.834    21011573.937 7  86038882.823 7
       297.511  
  20085015.116 7 105547466.824 7      -811.281    22901266.621 7  93776858.469 7
      2002.879  
  23522423.136 7 123611167.889 7       142.206    23522423.136 7  96320390.563 7
       110.810  
  22426254.322 7 117850761.888 7      1896.783    22426254.322 7  91831762.510 7
      1478.013  
  21011573.937 7 110416566.290 7       381.806    21559647.213 7  88283151.270 7
     -2142.058  
  21559647.213 7 113296710.796 7     -2748.975    20700895.923 7  84766708.292 7
       450.260  
 24 01 02 10 00 18.2000000  0  7G32G23G18G27G10G24G15
  22901217.711 7 120346711.344 7      2570.114    20085030.555 7  82244842.562 7
      -632.206  
  20700884.928 7 108783884.525 7       577.838    21011566.671 7  86038853.068 7
       297.585  
  20085030.555 7 105547547.954 7      -811.331    22901217.711 7  93776658.190 7
      2002.686  
  23522420.433 7 123611153.680 7       141.968    23522420.433 7  96320379.491 7
       110.625  
  22426218.229 7 117850572.217 7      1896.647    22426218.229 7  91831614.714 7
      1477.907  
  21011566.671 7 110416528.104 7       381.900    21559699.523 7  88283365.470 7
     -2141.937  
  21559699.523 7 113296985.686 7     -2748.819    20700884.928 7  84766663.266 7
       450.263  
 24 01 02 10 00 18.3000000  0  7G32G23G18G27G10G24G15
  22901168.806 7 120346454.345 7      2569.868    20085045.995 7  82244905.784 7
      -632.245  
  20700873.932 7 108783826.741 7       577.842    21011559.402 7  86038823.306 7
       297.657  
  20085045.995 7 105547629.090 7      -811.381    22901168.806 7  93776457.931 7
      2002.495  
  23522417.733 7 123611139.495 7       141.732    23522417.733 7  96320368.438 7
       110.441  
  22426182.138 7 117850382.559 7      1896.511    22426182.138 7  91831466.929 7
      1477.801  
  21011559.402 7 110416489.910 7       381.994    21559751.830 7  88283579.657 7
     -2141.816  
  21559751.830 7 113297260.560 7     -2748.664    20700873.932 7  84766618.240 7
       450.267  
 24 01 02 10 00 18.4000000  0  7G32G23G18G27G10G24G15
  22901119.905 7 120346197.370 7      2569.624    20085061.435 7  82244969.011 7
      -632.284  
  20700862.936 7 108783768.957 7       577.846    21011552.132 7  86038793.537 7
       297.729  
  20085061.435 7 105547710.231 7      -811.431    22901119.905 7  93776257.691 7
      2002.305  
  23522415.038 7 123611125.334 7       141.497    23522415.038 7  96320357.403 7
       110.258  
  22426146.050 7 117850192.915 7      1896.377    22426146.050 7  91831319.154 7
      1477.696  
  21011552.132 7 110416451.706 7       382.086    21559804.134 7  88283793.833 7
     -2141.697  
  21559804.134 7 113297535.419 7     -2748.511    20700862.936 7  84766573.213 7
       450.269  
 24 01 02 10 00 18.5000000  0  7G32G23G18G27G10G24G15
  22901071.009 7 120345940.420 7      2569.382    20085076.877 7  82245032.241 7
      -632.323  
  20700851.940 7 108783711.172 7       577.849    21011544.861 7  86038763.760 7
       297.800  
  20085076.877 7 105547791.376 7      -811.482    22901071.009 7  93776057.470 7
      2002.116  
  23522412.348 7 123611111.196 7       141.264    23522412.348 7  96320346.386 7
       110.076  
  22426109.964 7 117850003.284 7      1896.243    22426109.964 7  91831171.390 7
      1477.592  
  21011544.861 7 110416413.493 7       382.177    21559856.435 7  88284007.997 7
     -2141.578  
  21559856.435 7 113297810.262 7     -2748.359    20700851.940 7  84766528.186 7
       450.272  
 24 01 02 10 00 18.6000000  0  7G32G23G18G27G10G24G15
  22901022.118 7 120345683.494 7      2569.140    20085092.319 7  82245095.476 7
      -632.363  
  20700840.943 7 108783653.387 7       577.853    21011537.587 7  86038733.977 7
       297.870  
  20085092.319 7 105547872.527 7      -811.532    22901022.118 7  93775857.268 7
      2001.928  
  23522409.662 7 123611097.081 7       141.031    23522409.662 7  96320335.388 7
       109.895  
  22426073.881 7 117849813.666 7      1896.110    22426073.881 7  91831023.636 7
      1477.489  
  21011537.587 7 110416375.270 7       382.267    21559908.733 7  88284222.149 7
     -2141.461  
  21559908.733 7 113298085.091 7     -2748.208    20700840.943 7  84766483.158 7
       450.275  
 24 01 02 10 00 18.7000000  0  7G32G23G18G27G10G24G15
  22900973.231 7 120345426.592 7      2568.901    20085107.763 7  82245158.714 7
      -632.402  
  20700829.947 7 108783595.601 7       577.856    21011530.312 7  86038704.186 7
       297.939  
  20085107.763 7 105547953.683 7      -811.583    22900973.231 7  93775657.085 7
      2001.741  
  23522406.981 7 123611082.989 7       140.800    23522406.981 7  96320324.407 7
       109.714  
  22426037.801 7 117849624.061 7      1895.979    22426037.801 7  91830875.892 7
      1477.386  
  21011530.312 7 110416337.039 7       382.355    21559961.028 7  88284436.289 7
     -2141.344  
  21559961.028 7 113298359.904 7     -2748.058    20700829.947 7  84766438.131 7
       450.278  
 24 01 02 10 00 18.8000000  0  7G32G23G18G27G10G24G15
  22900924.348 7 120345169.714 7      2568.663    20085123.207 7  82245221.956 7
      -632.441  
  20700818.951 7 108783537.816 7       577.859    21011523.035 7  86038674.389 7
       298.007  
  20085123.207 7 105548034.843 7      -811.633    22900924.348 7  93775456.920 7
      2001.555  
  23522404.303 7 123611068.921 7       140.570    23522404.303 7  96320313.445 7
       109.535  
  22426001.723 7 117849434.470 7      1895.848    22426001.723 7  91830728.159 7
      1477.284  
  21011523.035 7 110416298.799 7       382.443    21560013.321 7  88284650.417 7
     -2141.228  
  21560013.321 7 113298634.702 7     -2747.910    20700818.951 7  84766393.103 7
       450.280  
 24 01 02 10 00 18.9000000  0  7G32G23G18G27G10G24G15
  22900875.471 7 120344912.859 7      2568.426    20085138.652 7  82245285.202 7
      -632.481  
  20700807.955 7 108783480.029 7       577.862    21011515.757 7  86038644.585 7
       298.075  
  20085138.652 7 105548116.009 7      -811.684    22900875.471 7  93775256.774 7
      2001.371  
  23522401.631 7 123611054.875 7       140.341    23522401.631 7  96320302.500 7
       109.357  
  22425965.647 7 117849244.892 7      1895.718    22425965.647 7  91830580.435 7
      1477.183  
  21011515.757 7 110416260.551 7       382.529    21560065.610 7  88284864.535 7
     -2141.114  
  21560065.610 7 113298909.486 7     -2747.763    20700807.955 7  84766348.075 7
       450.282  
 24 01 02 10 00 19.0000000  0  7G32G23G18G27G10G24G15
  22900826.597 7 120344656.029 7      2568.191    20085154.099 7  82245348.452 7
      -632.520  
  20700796.958 7 108783422.243 7       577.865    21011508.477 7  86038614.774 7
       298.141  
  20085154.099 7 105548197.180 7      -811.735    22900826.597 7  93775056.646 7
      2001.188  
  23522398.962 7 123611040.852 7       140.114    23522398.962 7  96320291.573 7
       109.180  
  22425929.574 7 117849055.326 7      1895.589    22425929.574 7  91830432.722 7
      1477.082  
  21011508.477 7 110416222.294 7       382.614    21560117.897 7  88285078.640 7
     -2141.000  
  21560117.897 7 113299184.255 7     -2747.617    20700796.958 7  84766303.047 7
       450.285  
 24 01 02 10 00 19.1000000  0  7G32G23G18G27G10G24G15
  22900777.729 7 120344399.221 7      2567.957    20085169.546 7  82245411.706 7
      -632.560  
  20700785.962 7 108783364.456 7       577.868    21011501.195 7  86038584.957 7
       298.207  
  20085169.546 7 105548278.356 7      -811.785    22900777.729 7  93774856.536 7
      2001.006  
  23522396.298 7 123611026.852 7       139.887    23522396.298 7  96320280.664 7
       109.003  
  22425893.503 7 117848865.774 7      1895.461    22425893.503 7  91830285.019 7
      1476.983  
  21011501.195 7 110416184.028 7       382.699    21560170.181 7  88285292.735 7
     -2140.887  
  21560170.181 7 113299459.009 7     -2747.472    20700785.962 7  84766258.018 7
       450.287  
 24 01 02 10 00 19.2000000  0  7G32G23G18G27G10G24G15
  22900728.864 7 120344142.437 7      2567.725    20085184.994 7  82245474.964 7
      -632.600  
  20700774.965 7 108783306.669 7       577.871    21011493.912 7  86038555.133 7
       298.271  
  20085184.994 7 105548359.537 7      -811.836    22900728.864 7  93774656.444 7
      2000.825  
  23522393.638 7 123611012.875 7       139.662    23522393.638 7  96320269.773 7
       108.828  
  22425857.435 7 117848676.234 7      1895.334    22425857.435 7  91830137.325 7
      1476.884  
  21011493.912 7 110416145.754 7       382.782    21560222.462 7  88285506.818 7
     -2140.775  
  21560222.462 7 113299733.749 7     -2747.328    20700774.965 7  84766212.989 7
       450.289  
 24 01 02 10 00 19.3000000  0  7G32G23G18G27G10G24G15
  22900680.004 7 120343885.676 7      2567.495    20085200.443 7  82245538.226 7
      -632.639  
  20700763.969 7 108783248.882 7       577.873    21011486.627 7  86038525.303 7
       298.335  
  20085200.443 7 105548440.723 7      -811.887    22900680.004 7  93774456.371 7
      2000.645  
  23522390.983 7 123610998.920 7       139.438    23522390.983 7  96320258.899 7
       108.653  
  22425821.369 7 117848486.707 7      1895.208    22425821.369 7  91829989.642 7
      1476.785  
  21011486.627 7 110416107.472 7       382.864    21560274.741 7  88285720.890 7
     -2140.664  
  21560274.741 7 113300008.475 7     -2747.186    20700763.969 7  84766167.960 7
       450.291  
 24 01 02 10 00 19.4000000  0  7G32G23G18G27G10G24G15
  22900631.149 7 120343628.938 7      2567.265    20085215.894 7  82245601.492 7
      -632.679  
  20700752.972 7 108783191.095 7       577.876    21011479.340 7  86038495.466 7
       298.398  
  20085215.894 7 105548521.915 7      -811.938    22900631.149 7  93774256.315 7
      2000.467  
  23522388.331 7 123610984.987 7       139.215    23522388.331 7  96320248.042 7
       108.479  
  22425785.306 7 117848297.193 7      1895.082    22425785.306 7  91829841.968 7
      1476.687  
  21011479.340 7 110416069.181 7       382.945    21560327.017 7  88285934.951 7
     -2140.554  
  21560327.017 7 113300283.187 7     -2747.044    20700752.972 7  84766122.931 7
       450.293  
 24 01 02 10 00 19.5000000  0  7G32G23G18G27G10G24G15
  22900582.321 7 120343372.346 7      2563.243    20085231.346 7  82245664.766 7
      -632.827  
  20700741.969 7 108783133.273 7       578.898    21011472.039 7  86038465.566 7
       300.230  
  20085231.346 7 105548603.116 7      -812.129    22900582.321 7  93774056.373 7
      1997.333  
  23522385.696 7 123610971.137 7       137.103    23522385.696 7  96320237.250 7
       106.833  
  22425749.252 7 117848107.729 7      1893.738    22425749.252 7  91829694.335 7
      1475.640  
  21011472.039 7 110416030.810 7       385.295    21560379.269 7  88286148.917 7
     -2137.874  
  21560379.269 7 113300557.777 7     -2743.605    20700741.969 7  84766077.875 7
       451.089  
 24 01 02 10 00 19.6000000  0  7G32G23G18G27G10G24G15
  22900533.601 7 120343116.323 7      2557.223    20085246.802 7  82245728.058 7
      -633.026  
  20700730.938 7 108783075.307 7       580.440    21011464.673 7  86038435.404 7
       303.006  
  20085246.802 7 105548684.341 7      -812.384    22900533.601 7  93773856.875 7
      1992.641  
  23522383.117 7 123610957.584 7       133.961    23522383.117 7  96320226.689 7
       104.385  
  22425713.235 7 117847918.457 7      1891.722    22425713.235 7  91829546.849 7
      1474.069  
  21011464.673 7 110415992.102 7       388.858    21560431.429 7  88286362.503 7
     -2133.845  
  21560431.429 7 113300831.879 7     -2738.434    20700730.938 7  84766032.706 7
       452.291  
 24 01 02 10 00 19.7000000  0  7G32G23G18G27G10G24G15
  22900484.996 7 120342860.900 7      2551.242    20085262.264 7  82245791.371 7
      -633.227  
  20700719.878 7 108783017.186 7       581.978    21011457.239 7  86038404.966 7
       305.759  
  20085262.264 7 105548765.593 7      -812.641    22900484.996 7  93773657.844 7
      1987.981  
  23522380.597 7 123610944.344 7       130.852    23522380.597 7  96320216.372 7
       101.962  
  22425677.255 7 117847729.384 7      1889.730    22425677.255 7  91829399.520 7
      1472.517  
  21011457.239 7 110415953.039 7       392.390    21560483.491 7  88286575.687 7
     -2129.840  
  21560483.491 7 113301105.465 7     -2733.295    20700719.878 7  84765987.417 7
       453.489  
 24 01 02 10 00 19.8000000  0  7G32G23G18G27G10G24G15
  22900436.504 7 120342606.073 7      2545.301    20085277.730 7  82245854.704 7
      -633.428  
  20700708.789 7 108782958.911 7       583.512    21011449.739 7  86038374.253 7
       308.488  
  20085277.730 7 105548846.870 7      -812.900    22900436.504 7  93773459.278 7
      1983.351  
  23522378.137 7 123610931.413 7       127.774    23522378.137 7  96320206.296 7
        99.564  
  22425641.314 7 117847540.510 7      1887.763    22425641.314 7  91829252.345 7
      1470.984  
  21011449.739 7 110415913.625 7       395.893    21560535.455 7  88286788.472 7
     -2125.861  
  21560535.455 7 113301378.539 7     -2728.188    20700708.789 7  84765942.009 7
       454.685  
 24 01 02 10 00 19.9000000  0  7G32G23G18G27G10G24G15
  22900388.125 7 120342351.838 7      2539.400    20085293.202 7  82245918.057 7
      -633.632  
  20700697.671 7 108782900.484 7       585.043    21011442.172 7  86038343.269 7
       311.195  
  20085293.202 7 105548928.173 7      -813.161    22900388.125 7  93773261.173 7
      1978.753  
  23522375.734 7 123610918.788 7       124.729    23522375.734 7  96320196.458 7
        97.191  
  22425605.409 7 117847351.831 7      1885.820    22425605.409 7  91829105.323 7
      1469.470  
  21011442.172 7 110415873.861 7       399.366    21560587.323 7  88287000.860 7
     -2121.906  
  21560587.323 7 113301651.103 7     -2723.113    20700697.671 7  84765896.481 7
       455.877  
 24 01 02 10 00 20.0000000  0  7G32G23G18G27G10G24G15
  22900339.834 7 120342098.069 7      2537.332    20085308.677 7  82245981.426 7
      -633.728  
  20700686.530 7 108782841.936 7       585.549    21011434.554 7  86038312.072 7
       312.109  
  20085308.677 7 105549009.497 7      -813.285    22900339.834 7  93773063.430 7
      1977.142  
  23522373.378 7 123610906.406 7       123.606    23522373.378 7  96320186.810 7
        96.316  
  22425569.534 7 117847163.306 7      1885.121    22425569.534 7  91828958.420 7
      1468.925  
  21011434.554 7 110415833.825 7       400.540    21560639.114 7  88287212.937 7
     -2120.547  
  21560639.114 7 113301923.269 7     -2721.368    20700686.530 7  84765850.860 7
       456.272  
 24 01 02 10 00 20.1000000  0  7G32G23G18G27G10G24G15
  22900291.550 7 120341844.337 7      2537.303    20085324.154 7  82246044.802 7
      -633.776  
  20700675.387 7 108782783.382 7       585.532    21011426.932 7  86038280.864 7
       312.054  
  20085324.154 7 105549090.829 7      -813.346    22900291.550 7  93772865.717 7
      1977.119  
  23522371.026 7 123610894.048 7       123.544    23522371.026 7  96320177.180 7
        96.268  
  22425533.662 7 117846974.794 7      1885.118    22425533.662 7  91828811.528 7
      1468.923  
  21011426.932 7 110415793.775 7       400.470    21560690.900 7  88287424.993 7
     -2120.563  
  21560690.900 7 113302195.407 7     -2721.389    20700675.387 7  84765805.233 7
       456.259  
 24 01 02 10 00 20.2000000  0  7G32G23G18G27G10G24G15
  22900243.267 7 120341590.608 7      2537.275    20085339.632 7  82246108.182 7
      -633.824  
  20700664.245 7 108782724.830 7       585.515    21011419.312 7  86038249.661 7
       312.000  
  20085339.632 7 105549172.166 7      -813.407    22900243.267 7  93772668.007 7
      1977.097  
  23522368.676 7 123610881.697 7       123.483    23522368.676 7  96320167.556 7
        96.220  
  22425497.789 7 117846786.283 7      1885.115    22425497.789 7  91828664.636 7
      1468.921  
  21011419.312 7 110415753.731 7       400.400    21560742.687 7  88287637.050 7
     -2120.579  
  21560742.687 7 113302467.547 7     -2721.410    20700664.245 7  84765759.608 7
       456.246  
 24 01 02 10 00 20.3000000  0  7G32G23G18G27G10G24G15
  22900194.985 7 120341336.882 7      2537.246    20085355.112 7  82246171.566 7
      -633.871  
  20700653.103 7 108782666.279 7       585.498    21011411.694 7  86038218.464 7
       311.946  
  20085355.112 7 105549253.510 7      -813.468    22900194.985 7  93772470.298 7
      1977.075  
  23522366.327 7 123610869.352 7       123.421    23522366.327 7  96320157.936 7
        96.172  
  22425461.917 7 117846597.771 7      1885.112    22425461.917 7  91828517.744 7
      1468.919  
  21011411.694 7 110415713.695 7       400.331    21560794.474 7  88287849.108 7
     -2120.595  
  21560794.474 7 113302739.689 7     -2721.430    20700653.103 7  84765713.984 7
       456.232  
 24 01 02 10 00 20.4000000  0  7G32G23G18G27G10G24G15
  22900146.703 7 120341083.159 7      2537.217    20085370.592 7  82246234.956 7
      -633.919  
  20700641.962 7 108782607.730 7       585.481    21011404.076 7  86038187.272 7
       311.892  
  20085370.592 7 105549334.860 7      -813.529    22900146.703 7  93772272.592 7
      1977.052  
  23522363.979 7 123610857.013 7       123.360    23522363.979 7  96320148.321 7
        96.124  
  22425426.044 7 117846409.260 7      1885.109    22425426.044 7  91828370.852 7
      1468.916  
  21011404.076 7 110415673.665 7       400.261    21560846.261 7  88288061.169 7
     -2120.611  
  21560846.261 7 113303011.833 7     -2721.451    20700641.962 7  84765668.361 7
       456.219  
 24 01 02 10 00 20.5000000  0  7G32G23G18G27G10G24G15
  22900098.422 7 120340829.439 7      2537.189    20085386.073 7  82246298.350 7
      -633.966  
  20700630.820 7 108782549.183 7       585.464    21011396.460 7  86038156.085 7
       311.837  
  20085386.073 7 105549416.216 7      -813.590    22900098.422 7  93772074.887 7
      1977.030  
  23522361.632 7 123610844.680 7       123.298    23522361.632 7  96320138.711 7
        96.076  
  22425390.172 7 117846220.750 7      1885.106    22425390.172 7  91828223.961 7
      1468.914  
  21011396.460 7 110415633.643 7       400.191    21560898.049 7  88288273.231 7
     -2120.627  
  21560898.049 7 113303283.979 7     -2721.471    20700630.820 7  84765622.740 7
       456.205  
 24 01 02 10 00 20.6000000  0  7G32G23G18G27G10G24G15
  22900050.141 7 120340575.721 7      2537.160    20085401.556 7  82246361.749 7
      -634.014  
  20700619.680 7 108782490.638 7       585.447    21011388.846 7  86038124.904 7
       311.783  
  20085401.556 7 105549497.578 7      -813.651    22900050.141 7  93771877.186 7
      1977.008  
  23522359.286 7 123610832.353 7       123.237    23522359.286 7  96320129.106 7
        96.029  
  22425354.299 7 117846032.239 7      1885.104    22425354.299 7  91828077.069 7
      1468.912  
  21011388.846 7 110415593.627 7       400.121    21560949.837 7  88288485.294 7
     -2120.643  
  21560949.837 7 113303556.127 7     -2721.492    20700619.680 7  84765577.120 7
       456.192  
 24 01 02 10 00 20.7000000  0  7G32G23G18G27G10G24G15
  22900001.860 7 120340322.007 7      2537.132    20085417.040 7  82246425.153 7
      -634.062  
  20700608.539 7 108782432.094 7       585.429    21011381.232 7  86038093.729 7
       311.729  
  20085417.040 7 105549578.946 7      -813.712    22900001.860 7  93771679.486 7
      1976.986  
  23522356.942 7 123610820.032 7       123.175    23522356.942 7  96320119.506 7
        95.981  
  22425318.427 7 117845843.729 7      1885.101    22425318.427 7  91827930.178 7
      1468.910  
  21011381.232 7 110415553.618 7       400.052    21561001.625 7  88288697.359 7
     -2120.659  
  21561001.625 7 113303828.278 7     -2721.513    20700608.539 7  84765531.502 7
       456.179  
 24 01 02 10 00 20.8000000  0  7G32G23G18G27G10G24G15
  22899953.580 7 120340068.293 7      2537.186    20085432.525 7  82246488.561 7
      -634.110  
  20700597.399 7 108782373.552 7       585.398    21011373.620 7  86038062.560 7
       311.630  
  20085432.525 7 105549660.320 7      -813.774    22899953.580 7  93771481.787 7
      1977.028  
  23522354.598 7 123610807.716 7       123.169    23522354.598 7  96320109.909 7
        95.976  
  22425282.555 7 117845655.218 7      1885.138    22425282.555 7  91827783.287 7
      1468.939  
  21011373.620 7 110415513.618 7       399.925    21561053.414 7  88288909.427 7
     -2120.730  
  21561053.414 7 113304100.432 7     -2721.603    20700597.399 7  84765485.885 7
       456.154  
 24 01 02 10 00 20.9000000  0  7G32G23G18G27G10G24G15
  22899905.296 7 120339814.556 7      2537.643    20085448.011 7  82246551.975 7
      -634.161  
  20700586.260 7 108782315.017 7       585.295    21011366.013 7  86038031.410 7
       311.317  
  20085448.011 7 105549741.701 7      -813.840    22899905.296 7  93771284.070 7
      1977.384  
  23522352.252 7 123610795.390 7       123.433    23522352.252 7  96320100.304 7
        96.181  
  22425246.680 7 117845466.695 7      1885.368    22425246.680 7  91827636.386 7
      1469.118  
  21011366.013 7 110415473.642 7       399.523    21561105.208 7  88289121.514 7
     -2121.062  
  21561105.208 7 113304372.609 7     -2722.030    20700586.260 7  84765440.273 7
       456.074  
 24 01 02 10 00 21.0000000  0  7G32G23G18G27G10G24G15
  22899856.996 7 120339560.740 7      2538.826    20085463.499 7  82246615.394 7
      -634.219  
  20700575.124 7 108782256.497 7       585.064    21011358.418 7  86038000.309 7
       310.616  
  20085463.499 7 105549823.089 7      -813.914    22899856.996 7  93771086.291 7
      1978.306  
  23522349.897 7 123610783.014 7       124.183    23522349.897 7  96320090.660 7
        96.766  
  22425210.798 7 117845278.133 7      1885.946    22425210.798 7  91827489.454 7
      1469.569  
  21011358.418 7 110415433.730 7       398.624    21561157.015 7  88289333.656 7
     -2121.869  
  21561157.015 7 113304644.858 7     -2723.066    20700575.124 7  84765394.673 7
       455.894  
 24 01 02 10 00 21.1000000  0  7G32G23G18G27G10G24G15
  22899808.665 7 120339306.759 7      2540.991    20085478.988 7  82246678.819 7
      -634.283  
  20700563.994 7 108782198.009 7       584.660    21011350.846 7  86037969.304 7
       309.391  
  20085478.988 7 105549904.484 7      -813.997    22899808.665 7  93770888.383 7
      1979.993  
  23522347.522 7 123610770.531 7       125.592    23522347.522 7  96320080.933 7
        97.864  
  22425174.900 7 117845089.490 7      1886.995    22425174.900 7  91827342.460 7
      1470.386  
  21011350.846 7 110415393.940 7       397.052    21561208.850 7  88289545.909 7
     -2123.317  
  21561208.850 7 113304917.250 7     -2724.924    20700563.994 7  84765349.098 7
       455.580  
 24 01 02 10 00 21.2000000  0  7G32G23G18G27G10G24G15
  22899760.282 7 120339052.504 7      2544.296    20085494.479 7  82246742.251 7
      -634.357  
  20700552.874 7 108782139.572 7       584.056    21011343.312 7  86037938.451 7
       307.558  
  20085494.479 7 105549985.889 7      -814.092    22899760.282 7  93770690.263 7
      1982.568  
  23522345.112 7 123610757.870 7       127.763    23522345.112 7  96320071.068 7
        99.556  
  22425138.978 7 117844900.715 7      1888.591    22425138.978 7  91827195.363 7
      1471.629  
  21011343.312 7 110415354.346 7       394.700    21561260.728 7  88289758.344 7
     -2125.509  
  21561260.728 7 113305189.874 7     -2727.736    20700552.874 7  84765303.563 7
       455.108  
 24 01 02 10 00 21.3000000  0  7G32G23G18G27G10G24G15
  22899711.825 7 120338797.862 7      2548.703    20085509.971 7  82246805.691 7
      -634.440  
  20700541.767 7 108782081.205 7       583.257    21011335.829 7  86037907.812 7
       305.137  
  20085509.971 7 105550067.303 7      -814.198    22899711.825 7  93770491.841 7
      1986.002  
  23522342.655 7 123610744.954 7       130.674    23522342.655 7  96320061.003 7
       101.824  
  22425103.020 7 117844711.754 7      1890.715    22425103.020 7  91827048.120 7
      1473.284  
  21011335.829 7 110415315.025 7       391.592    21561312.670 7  88289971.035 7
     -2128.420  
  21561312.670 7 113305462.828 7     -2731.472    20700541.767 7  84765258.082 7
       454.486  
 24 01 02 10 00 21.4000000  0  7G32G23G18G27G10G24G15
  22899663.277 7 120338542.740 7      2553.825    20085525.466 7  82246869.139 7
      -634.529  
  20700530.677 7 108782022.925 7       582.331    21011328.411 7  86037877.436 7
       302.334  
  20085525.466 7 105550148.728 7      -814.312    22899663.277 7  93770293.044 7
      1989.993  
  23522340.136 7 123610731.719 7       134.064    23522340.136 7  96320050.690 7
       104.466  
  22425067.017 7 117844522.561 7      1893.181    22425067.017 7  91826900.697 7
      1475.206  
  21011328.411 7 110415276.043 7       387.996    21561364.688 7  88290184.043 7
     -2131.797  
  21561364.688 7 113305736.189 7     -2735.807    20700530.677 7  84765212.669 7
       453.765  
 24 01 02 10 00 21.5000000  0  7G32G23G18G27G10G24G15
  22899614.629 7 120338287.091 7      2559.156    20085540.963 7  82246932.596 7
      -634.619  
  20700519.605 7 108781964.740 7       581.369    21011321.064 7  86037847.349 7
       299.420  
  20085540.963 7 105550230.165 7      -814.427    22899614.629 7  93770093.837 7
      1994.148  
  23522337.551 7 123610718.136 7       137.595    23522337.551 7  96320040.106 7
       107.217  
  22425030.967 7 117844333.115 7      1895.749    22425030.967 7  91826753.076 7
      1477.207  
  21011321.064 7 110415237.431 7       384.255    21561416.792 7  88290397.399 7
     -2135.312  
  21561416.792 7 113306009.995 7     -2740.318    20700519.605 7  84765167.330 7
       453.015  
 24 01 02 10 00 21.6000000  0  7G32G23G18G27G10G24G15
  22899565.881 7 120338030.919 7      2564.174    20085556.462 7  82246996.063 7
      -634.706  
  20700508.550 7 108781906.649 7       580.461    21011313.786 7  86037817.547 7
       296.672  
  20085556.462 7 105550311.614 7      -814.539    22899565.881 7  93769894.223 7
      1998.057  
  23522334.901 7 123610704.207 7       140.915    23522334.901 7  96320029.252 7
       109.804  
  22424994.869 7 117844143.417 7      1898.165    22424994.869 7  91826605.260 7
      1479.089  
  21011313.786 7 110415199.185 7       380.730    21561468.980 7  88290611.099 7
     -2138.622  
  21561468.980 7 113306284.243 7     -2744.565    20700508.550 7  84765122.064 7
       452.308  
 24 01 02 10 00 21.7000000  0  7G32G23G18G27G10G24G15
  22899517.045 7 120337774.283 7      2568.383    20085571.963 7  82247059.537 7
      -634.787  
  20700497.512 7 108781848.643 7       579.696    21011306.570 7  86037788.000 7
       294.356  
  20085571.963 7 105550393.073 7      -814.643    22899517.045 7  93769694.246 7
      2001.337  
  23522332.192 7 123610689.971 7       143.694    23522332.192 7  96320018.159 7
       111.970  
  22424958.728 7 117843953.494 7      1900.193    22424958.728 7  91826457.268 7
      1480.670  
  21011306.570 7 110415161.267 7       377.757    21561521.243 7  88290825.106 7
     -2141.405  
  21561521.243 7 113306558.886 7     -2748.136    20700497.512 7  84765076.865 7
       451.711  
 24 01 02 10 00 21.8000000  0  7G32G23G18G27G10G24G15
  22899468.124 7 120337517.201 7      2573.719    20085587.472 7  82247123.045 7
      -635.589  
  20700486.477 7 108781790.654 7       580.534    21011299.425 7  86037758.744 7
       290.136  
  20085587.472 7 105550474.575 7      -815.672    22899468.124 7  93769493.923 7
      2005.495  
  23522329.404 7 123610675.323 7       150.558    23522329.404 7  96320006.745 7
       117.318  
  22424922.525 7 117843763.250 7      1905.837    22424922.525 7  91826309.026 7
      1485.067  
  21011299.425 7 110415123.721 7       372.341    21561573.573 7  88291039.390 7
     -2144.436  
  21561573.573 7 113306833.884 7     -2752.026    20700486.477 7  84765031.678 7
       452.364  
 24 01 02 10 00 21.9000000  0  7G32G23G18G27G10G24G15
  22899419.097 7 120337259.562 7      2578.871    20085603.008 7  82247186.660 7
      -636.696  
  20700475.415 7 108781732.520 7       582.181    21011292.398 7  86037729.969 7
       285.451  
  20085603.008 7 105550556.213 7      -817.093    22899419.097 7  93769293.165 7
      2009.510  
  23522326.460 7 123610659.853 7       158.733    23522326.460 7  96319994.691 7
       123.688  
  22424886.192 7 117843572.318 7      1912.718    22424886.192 7  91826160.248 7
      1490.429  
  21011292.398 7 110415086.794 7       366.329    21561625.977 7  88291253.974 7
     -2147.136  
  21561625.977 7 113307109.267 7     -2755.491    20700475.415 7  84764986.379 7
       453.648  
 24 01 02 10 00 22.0000000  0  7G32G23G18G27G10G24G15
  22899369.981 7 120337001.458 7      2583.066    20085618.570 7  82247250.385 7
      -637.807  
  20700464.319 7 108781674.211 7       584.024    21011285.479 7  86037701.637 7
       281.257  
  20085618.570 7 105550637.994 7      -818.518    22899369.981 7  93769092.046 7
      2012.779  
  23522323.367 7 123610643.596 7       166.318    23522323.367 7  96319982.023 7
       129.598  
  22424849.732 7 117843380.720 7      1919.186    22424849.732 7  91826010.950 7
      1495.470  
  21011285.479 7 110415050.434 7       360.947    21561678.438 7  88291468.796 7
     -2149.204  
  21561678.438 7 113307384.955 7     -2758.145    20700464.319 7  84764940.944 7
       455.084  
 24 01 02 10 00 22.1000000  0  7G32G23G18G27G10G24G15
  22899320.793 7 120336742.972 7      2586.574    20085634.160 7  82247314.221 7
      -638.923  
  20700453.186 7 108781615.710 7       586.015    21011278.658 7  86037673.706 7
       277.411  
  20085634.160 7 105550719.917 7      -819.951    22899320.793 7  93768890.627 7
      2015.512  
  23522320.133 7 123610626.603 7       173.492    23522320.133 7  96319968.782 7
       135.189  
  22424813.152 7 117843188.490 7      1925.371    22424813.152 7  91825861.161 7
      1500.289  
  21011278.658 7 110415014.589 7       356.011    21561730.944 7  88291683.800 7
     -2150.817  
  21561730.944 7 113307660.877 7     -2760.215    20700453.186 7  84764895.359 7
       456.635  
 24 01 02 10 00 22.2000000  0  7G32G23G18G27G10G24G15
  22899271.542 7 120336484.155 7      2589.732    20085649.776 7  82247378.170 7
      -640.047  
  20700442.015 7 108781557.005 7       588.094    21011271.929 7  86037646.150 7
       273.732  
  20085649.776 7 105550801.984 7      -821.393    22899271.542 7  93768688.952 7
      2017.973  
  23522316.765 7 123610608.904 7       180.481    23522316.765 7  96319954.990 7
       140.635  
  22424776.456 7 117842995.650 7      1931.434    22424776.456 7  91825710.896 7
      1505.013  
  21011271.929 7 110414979.225 7       351.290    21561783.487 7  88291898.952 7
     -2152.194  
  21561783.487 7 113307936.988 7     -2761.982    20700442.015 7  84764849.615 7
       458.255  
 24 01 02 10 00 22.3000000  0  7G32G23G18G27G10G24G15
  22899222.246 7 120336225.107 7      2590.557    20085665.415 7  82247442.205 7
      -640.451  
  20700430.814 7 108781498.140 7       588.809    21011265.267 7  86037618.871 7
       272.582  
  20085665.415 7 105550884.163 7      -821.912    22899222.246 7  93768487.096 7
      2018.616  
  23522313.297 7 123610590.677 7       182.627    23522313.297 7  96319940.787 7
       142.307  
  22424739.672 7 117842802.349 7      1933.349    22424739.672 7  91825560.272 7
      1506.506  
  21011265.267 7 110414944.218 7       349.814    21561836.053 7  88292114.203 7
     -2152.529  
  21561836.053 7 113308213.227 7     -2762.412    20700430.814 7  84764803.745 7
       458.812  
 24 01 02 10 00 22.4000000  0  7G32G23G18G27G10G24G15
  22899172.951 7 120335966.058 7      2590.431    20085681.056 7  82247506.255 7
      -640.551  
  20700419.608 7 108781439.252 7       588.941    21011258.611 7  86037591.618 7
       272.483  
  20085681.056 7 105550966.361 7      -822.041    22899172.951 7  93768285.240 7
      2018.518  
  23522309.820 7 123610572.408 7       182.748    23522309.820 7  96319926.552 7
       142.401  
  22424702.880 7 117842609.006 7      1933.526    22424702.880 7  91825409.615 7
      1506.644  
  21011258.611 7 110414909.243 7       349.687    21561888.619 7  88292329.451 7
     -2152.446  
  21561888.619 7 113308489.463 7     -2762.305    20700419.608 7  84764757.859 7
       458.915  
 24 01 02 10 00 22.5000000  0  7G32G23G18G27G10G24G15
  22899123.658 7 120335707.021 7      2590.306    20085696.700 7  82247570.315 7
      -640.651  
  20700408.399 7 108781380.352 7       589.072    21011251.958 7  86037564.374 7
       272.385  
  20085696.700 7 105551048.571 7      -822.169    22899123.658 7  93768083.393 7
      2018.420  
  23522306.342 7 123610554.127 7       182.868    23522306.342 7  96319912.307 7
       142.495  
  22424666.084 7 117842415.644 7      1933.703    22424666.084 7  91825258.943 7
      1506.781  
  21011251.958 7 110414874.280 7       349.560    21561941.183 7  88292544.692 7
     -2152.364  
  21561941.183 7 113308765.688 7     -2762.200    20700408.399 7  84764711.962 7
       459.017  
 24 01 02 10 00 22.6000000  0  7G32G23G18G27G10G24G15
  22899074.367 7 120335447.997 7      2590.181    20085712.347 7  82247634.385 7
      -640.750  
  20700397.188 7 108781321.438 7       589.202    21011245.308 7  86037537.141 7
       272.286  
  20085712.347 7 105551130.795 7      -822.296    22899074.367 7  93767881.556 7
      2018.323  
  23522302.861 7 123610535.835 7       182.987    23522302.861 7  96319898.053 7
       142.587  
  22424629.286 7 117842222.265 7      1933.878    22424629.286 7  91825108.258 7
      1506.918  
  21011245.308 7 110414839.331 7       349.434    21561993.745 7  88292759.924 7
     -2152.282  
  21561993.745 7 113309041.903 7     -2762.096    20700397.188 7  84764666.055 7
       459.118  
 24 01 02 10 00 22.7000000  0  7G32G23G18G27G10G24G15
  22899025.079 7 120335188.985 7      2590.057    20085727.996 7  82247698.465 7
      -640.849  
  20700385.975 7 108781262.511 7       589.330    21011238.659 7  86037509.917 7
       272.188  
  20085727.996 7 105551213.031 7      -822.423    22899025.079 7  93767679.728 7
      2018.227  
  23522299.377 7 123610517.530 7       183.104    23522299.377 7  96319883.790 7
       142.679  
  22424592.483 7 117842028.869 7      1934.051    22424592.483 7  91824957.560 7
      1507.053  
  21011238.659 7 110414804.393 7       349.308    21562046.305 7  88292975.148 7
     -2152.201  
  21562046.305 7 113309318.107 7     -2761.992    20700385.975 7  84764620.139 7
       459.218  
 24 01 02 10 00 22.8000000  0  7G32G23G18G27G10G24G15
  22898975.793 7 120334929.985 7      2589.934    20085743.647 7  82247762.555 7
      -640.948  
  20700374.759 7 108781203.572 7       589.458    21011232.013 7  86037482.703 7
       272.090  
  20085743.647 7 105551295.279 7      -822.550    22898975.793 7  93767477.910 7
      2018.131  
  23522295.892 7 123610499.214 7       183.220    23522295.892 7  96319869.517 7
       142.769  
  22424555.678 7 117841835.455 7      1934.224    22424555.678 7  91824806.848 7
      1507.187  
  21011232.013 7 110414769.469 7       349.182    21562098.863 7  88293190.364 7
     -2152.121  
  21562098.863 7 113309594.301 7     -2761.889    20700374.759 7  84764574.212 7
       459.318  
 24 01 02 10 00 22.9000000  0  7G32G23G18G27G10G24G15
  22898926.509 7 120334670.998 7      2589.812    20085759.301 7  82247826.655 7
      -641.046  
  20700363.541 7 108781144.620 7       589.585    21011225.370 7  86037455.499 7
       271.993  
  20085759.301 7 105551377.541 7      -822.676    22898926.509 7  93767276.102 7
      2018.035  
  23522292.404 7 123610480.886 7       183.335    23522292.404 7  96319855.236 7
       142.859  
  22424518.869 7 117841642.024 7      1934.395    22424518.869 7  91824656.123 7
      1507.321  
  21011225.370 7 110414734.557 7       349.057    21562151.419 7  88293405.573 7
     -2152.042  
  21562151.419 7 113309870.485 7     -2761.787    20700363.541 7  84764528.275 7
       459.417  
 24 01 02 10 00 23.0000000  0  7G32G23G18G27G10G24G15
  22898877.228 7 120334412.023 7      2589.690    20085774.957 7  82247890.764 7
      -641.144  
  20700352.320 7 108781085.655 7       589.710    21011218.729 7  86037428.304 7
       271.896  
  20085774.957 7 105551459.814 7      -822.802    22898877.228 7  93767074.303 7
      2017.940  
  23522288.914 7 123610462.547 7       183.449    23522288.914 7  96319840.946 7
       142.947  
  22424482.057 7 117841448.576 7      1934.565    22424482.057 7  91824505.384 7
      1507.453  
  21011218.729 7 110414699.657 7       348.933    21562203.973 7  88293620.773 7
     -2151.963  
  21562203.973 7 113310146.658 7     -2761.686    20700352.320 7  84764482.328 7
       459.515  
 24 01 02 10 00 23.1000000  0  7G32G23G18G27G10G24G15
  22898827.949 7 120334153.060 7      2589.569    20085790.616 7  82247954.884 7
      -641.242  
  20700341.097 7 108781026.678 7       589.835    21011212.090 7  86037401.120 7
       271.799  
  20085790.616 7 105551542.101 7      -822.927    22898827.949 7  93766872.514 7
      2017.846  
  23522285.422 7 123610444.196 7       183.561    23522285.422 7  96319826.647 7
       143.034  
  22424445.242 7 117841255.111 7      1934.733    22424445.242 7  91824354.632 7
      1507.584  
  21011212.090 7 110414664.770 7       348.808    21562256.525 7  88293835.965 7
     -2151.885  
  21562256.525 7 113310422.822 7     -2761.586    20700341.097 7  84764436.372 7
       459.612  
 24 01 02 10 00 23.2000000  0  7G32G23G18G27G10G24G15
  22898778.672 7 120333894.109 7      2589.448    20085806.277 7  82248019.013 7
      -641.339  
  20700329.872 7 108780967.688 7       589.958    21011205.454 7  86037373.945 7
       271.702  
  20085806.277 7 105551624.400 7      -823.052    22898778.672 7  93766670.734 7
      2017.752  
  23522281.928 7 123610425.835 7       183.672    23522281.928 7  96319812.339 7
       143.121  
  22424408.424 7 117841061.629 7      1934.901    22424408.424 7  91824203.867 7
      1507.715  
  21011205.454 7 110414629.896 7       348.684    21562309.075 7  88294051.150 7
     -2151.808  
  21562309.075 7 113310698.976 7     -2761.487    20700329.872 7  84764390.406 7
       459.708  
 24 01 02 10 00 23.3000000  0  7G32G23G18G27G10G24G15
  22898729.398 7 120333635.170 7      2589.328    20085821.940 7  82248083.152 7
      -641.436  
  20700318.644 7 108780908.686 7       590.081    21011198.819 7  86037346.779 7
       271.606  
  20085821.940 7 105551706.711 7      -823.176    22898729.398 7  93766468.964 7
      2017.658  
  23522278.432 7 123610407.462 7       183.782    23522278.432 7  96319798.022 7
       143.206  
  22424371.602 7 117840868.131 7      1935.067    22424371.602 7  91824053.089 7
      1507.844  
  21011198.819 7 110414595.034 7       348.561    21562361.624 7  88294266.327 7
     -2151.731  
  21562361.624 7 113310975.119 7     -2761.388    20700318.644 7  84764344.431 7
       459.803  
 24 01 02 10 00 23.4000000  0  7G32G23G18G27G10G24G15
  22898680.126 7 120333376.243 7      2589.209    20085837.606 7  82248147.300 7
      -641.533  
  20700307.414 7 108780849.672 7       590.202    21011192.188 7  86037319.624 7
       271.510  
  20085837.606 7 105551789.035 7      -823.300    22898680.126 7  93766267.203 7
      2017.566  
  23522274.934 7 123610389.079 7       183.890    23522274.934 7  96319783.698 7
       143.291  
  22424334.778 7 117840674.616 7      1935.232    22424334.778 7  91823902.298 7
      1507.973  
  21011192.188 7 110414560.184 7       348.438    21562414.170 7  88294481.496 7
     -2151.655  
  21562414.170 7 113311251.253 7     -2761.291    20700307.414 7  84764298.446 7
       459.898  
 24 01 02 10 00 23.5000000  0  7G32G23G18G27G10G24G15
  22898630.856 7 120333117.328 7      2589.091    20085853.274 7  82248211.458 7
      -641.629  
  20700296.182 7 108780790.646 7       590.323    21011185.558 7  86037292.477 7
       271.414  
  20085853.274 7 105551871.371 7      -823.424    22898630.856 7  93766065.451 7
      2017.473  
  23522271.433 7 123610370.684 7       183.997    23522271.433 7  96319769.364 7
       143.375  
  22424297.950 7 117840481.085 7      1935.395    22424297.950 7  91823751.495 7
      1508.100  
  21011185.558 7 110414525.346 7       348.315    21562466.715 7  88294696.658 7
     -2151.580  
  21562466.715 7 113311527.378 7     -2761.194    20700296.182 7  84764252.451 7
       459.992  
 24 01 02 10 00 23.6000000  0  7G32G23G18G27G10G24G15
  22898581.588 7 120332858.425 7      2588.973    20085868.944 7  82248275.626 7
      -641.725  
  20700284.947 7 108780731.607 7       590.442    21011178.931 7  86037265.341 7
       271.319  
  20085868.944 7 105551953.720 7      -823.547    22898581.588 7  93765863.708 7
      2017.381  
  23522267.931 7 123610352.279 7       184.103    23522267.931 7  96319755.023 7
       143.457  
  22424261.119 7 117840287.537 7      1935.558    22424261.119 7  91823600.678 7
      1508.227  
  21011178.931 7 110414490.521 7       348.193    21562519.258 7  88294911.812 7
     -2151.505  
  21562519.258 7 113311803.492 7     -2761.098    20700284.947 7  84764206.447 7
       460.085  
 24 01 02 10 00 23.7000000  0  7G32G23G18G27G10G24G15
  22898532.323 7 120332599.534 7      2588.856    20085884.617 7  82248339.803 7
      -641.820  
  20700273.710 7 108780672.557 7       590.561    21011172.307 7  86037238.213 7
       271.224  
  20085884.617 7 105552036.081 7      -823.669    22898532.323 7  93765661.974 7
      2017.290  
  23522264.427 7 123610333.863 7       184.208    23522264.427 7  96319740.673 7
       143.539  
  22424224.285 7 117840093.973 7      1935.719    22424224.285 7  91823449.849 7
      1508.353  
  21011172.307 7 110414455.707 7       348.071    21562571.799 7  88295126.959 7
     -2151.431  
  21562571.799 7 113312079.597 7     -2761.003    20700273.710 7  84764160.434 7
       460.177  
 24 01 02 10 00 23.8000000  0  7G32G23G18G27G10G24G15
  22898483.059 7 120332340.654 7      2588.739    20085900.292 7  82248403.990 7
      -641.916  
  20700262.471 7 108780613.495 7       590.678    21011165.684 7  86037211.096 7
       271.129  
  20085900.292 7 105552118.454 7      -823.792    22898483.059 7  93765460.250 7
      2017.199  
  23522260.920 7 123610315.438 7       184.312    23522260.920 7  96319726.315 7
       143.620  
  22424187.448 7 117839900.393 7      1935.879    22424187.448 7  91823299.008 7
      1508.478  
  21011165.684 7 110414420.906 7       347.949    21562624.338 7  88295342.098 7
     -2151.358  
  21562624.338 7 113312355.693 7     -2760.909    20700262.471 7  84764114.412 7
       460.269  
 24 01 02 10 00 23.9000000  0  7G32G23G18G27G10G24G15
  22898433.799 7 120332081.786 7      2588.623    20085915.970 7  82248468.186 7
      -642.010  
  20700251.230 7 108780554.421 7       590.795    21011159.064 7  86037183.988 7
       271.035  
  20085915.970 7 105552200.839 7      -823.913    22898433.799 7  93765258.535 7
      2017.109  
  23522257.412 7 123610297.001 7       184.414    23522257.412 7  96319711.949 7
       143.699  
  22424150.608 7 117839706.797 7      1936.038    22424150.608 7  91823148.154 7
      1508.601  
  21011159.064 7 110414386.117 7       347.828    21562676.876 7  88295557.231 7
     -2151.285  
  21562676.876 7 113312631.779 7     -2760.816    20700251.230 7  84764068.380 7
       460.360  
 24 01 02 10 00 24.0000000  0  7G32G23G18G27G10G24G15
  22898384.540 7 120331822.929 7      2588.508    20085931.649 7  82248532.392 7
      -642.105  
  20700239.986 7 108780495.336 7       590.910    21011152.446 7  86037156.889 7
       270.941  
  20085931.649 7 105552283.236 7      -824.035    22898384.540 7  93765056.828 7
      2017.019  
  23522253.902 7 123610278.555 7       184.516    23522253.902 7  96319697.575 7
       143.778  
  22424113.765 7 117839513.185 7      1936.196    22424113.765 7  91822997.287 7
      1508.724  
  21011152.446 7 110414351.341 7       347.708    21562729.411 7  88295772.355 7
     -2151.213  
  21562729.411 7 113312907.856 7     -2760.724    20700239.986 7  84764022.340 7
       460.450  
 24 01 02 10 00 24.1000000  0  7G32G23G18G27G10G24G15
  22898335.283 7 120331564.084 7      2588.393    20085947.331 7  82248596.607 7
      -642.199  
  20700228.741 7 108780436.239 7       591.025    21011145.831 7  86037129.799 7
       270.847  
  20085947.331 7 105552365.646 7      -824.156    22898335.283 7  93764855.131 7
      2016.930  
  23522250.390 7 123610260.098 7       184.616    23522250.390 7  96319683.193 7
       143.856  
  22424076.919 7 117839319.558 7      1936.353    22424076.919 7  91822846.409 7
      1508.846  
  21011145.831 7 110414316.576 7       347.587    21562781.945 7  88295987.473 7
     -2151.142  
  21562781.945 7 113313183.924 7     -2760.632    20700228.741 7  84763976.290 7
       460.539  
 24 01 02 10 00 24.2000000  0  7G32G23G18G27G10G24G15
  22898286.036 7 120331305.287 7      2586.659    20085963.018 7  82248660.843 7
      -642.817  
  20700217.486 7 108780377.095 7       592.781    21011139.218 7  86037102.722 7
       270.638  
  20085963.018 7 105552448.082 7      -824.949    22898286.036 7  93764653.470 7
      2015.578  
  23522246.870 7 123610241.600 7       186.134    23522246.870 7  96319668.779 7
       145.040  
  22424040.063 7 117839125.881 7      1938.047    22424040.063 7  91822695.492 7
      1510.166  
  21011139.218 7 110414281.826 7       347.319    21562834.470 7  88296202.552 7
     -2149.646  
  21562834.470 7 113313459.942 7     -2758.712    20700217.486 7  84763930.204 7
       461.907  
 24 01 02 10 00 24.3000000  0  7G32G23G18G27G10G24G15
  22898236.848 7 120331046.805 7      2582.984    20085978.732 7  82248725.188 7
      -644.071  
  20700206.170 7 108780317.629 7       596.523    21011132.613 7  86037075.676 7
       270.277  
  20085978.732 7 105552530.658 7      -826.558    22898236.848 7  93764452.056 7
      2012.715  
  23522243.297 7 123610222.824 7       189.388    23522243.297 7  96319654.148 7
       147.575  
  22424003.149 7 117838931.897 7      1941.616    22424003.149 7  91822544.336 7
      1512.948  
  21011132.613 7 110414247.118 7       346.856    21562886.927 7  88296417.356 7
     -2146.437  
  21562886.927 7 113313735.607 7     -2754.594    20700206.170 7  84763883.867 7
       464.823  
 24 01 02 10 00 24.4000000  0  7G32G23G18G27G10G24G15
  22898187.730 7 120330788.690 7      2579.326    20085994.476 7  82248789.657 7
      -645.315  
  20700194.783 7 108780257.791 7       600.239    21011126.017 7  86037048.666 7
       269.924  
  20085994.476 7 105552613.393 7      -828.155    22898187.730 7  93764250.927 7
      2009.864  
  23522239.662 7 123610203.724 7       192.610    23522239.662 7  96319639.265 7
       150.085  
  22423966.168 7 117838737.559 7      1945.154    22423966.168 7  91822392.903 7
      1515.704  
  21011126.017 7 110414212.455 7       346.403    21562939.306 7  88296631.840 7
     -2143.245  
  21562939.306 7 113314010.861 7     -2750.498    20700194.783 7  84763837.240 7
       467.719  
 24 01 02 10 00 24.5000000  0  7G32G23G18G27G10G24G15
  22898138.682 7 120330530.939 7      2575.685    20086010.250 7  82248854.251 7
      -646.551  
  20700183.326 7 108780197.582 7       603.929    21011119.430 7  86037021.691 7
       269.579  
  20086010.250 7 105552696.288 7      -829.740    22898138.682 7  93764050.083 7
      2007.028  
  23522235.966 7 123610184.303 7       195.799    23522235.966 7  96319624.132 7
       152.571  
  22423929.120 7 117838542.868 7      1948.660    22423929.120 7  91822241.196 7
      1518.436  
  21011119.430 7 110414177.837 7       345.960    21562991.608 7  88296846.006 7
     -2140.072  
  21562991.608 7 113314285.707 7     -2746.425    20700183.326 7  84763790.324 7
       470.594  
 24 01 02 10 00 24.6000000  0  7G32G23G18G27G10G24G15
  22898089.703 7 120330273.552 7      2572.062    20086026.055 7  82248918.967 7
      -647.778  
  20700171.798 7 108780137.006 7       607.591    21011112.850 7  86036994.750 7
       269.243  
  20086026.055 7 105552779.341 7      -831.315    22898089.703 7  93763849.521 7
      2004.204  
  23522232.210 7 123610164.565 7       198.956    23522232.210 7  96319608.752 7
       155.031  
  22423892.005 7 117838347.828 7      1952.134    22423892.005 7  91822089.216 7
      1521.143  
  21011112.850 7 110414143.262 7       345.528    21563043.832 7  88297059.855 7
     -2136.915  
  21563043.832 7 113314560.147 7     -2742.374    20700171.798 7  84763743.122 7
       473.448  
 24 01 02 10 00 24.7000000  0  7G32G23G18G27G10G24G15
  22898040.786 7 120330016.490 7      2570.076    20086041.886 7  82248983.794 7
      -648.472  
  20700160.209 7 108780076.102 7       609.586    21011106.279 7  86036967.840 7
       269.029  
  20086041.886 7 105552862.536 7      -832.205    22898040.786 7  93763649.213 7
      2002.657  
  23522228.400 7 123610144.544 7       200.663    23522228.400 7  96319593.151 7
       156.360  
  22423854.830 7 117838152.476 7      1954.038    22423854.830 7  91821936.994 7
      1522.627  
  21011106.279 7 110414108.728 7       345.254    21563095.987 7  88297273.421 7
     -2135.201  
  21563095.987 7 113314834.224 7     -2740.175    20700160.209 7  84763695.663 7
       475.002  
 24 01 02 10 00 24.8000000  0  7G32G23G18G27G10G24G15
  22897991.879 7 120329759.484 7      2570.048    20086057.723 7  82249048.644 7
      -648.521  
  20700148.609 7 108780015.144 7       609.567    21011099.709 7  86036940.939 7
       268.976  
  20086057.723 7 105552945.760 7      -832.268    22897991.879 7  93763448.948 7
      2002.635  
  23522224.583 7 123610124.481 7       200.601    23522224.583 7  96319577.518 7
       156.312  
  22423817.646 7 117837957.072 7      1954.034    22423817.646 7  91821784.732 7
      1522.624  
  21011099.709 7 110414074.206 7       345.186    21563148.131 7  88297486.942 7
     -2135.218  
  21563148.131 7 113315108.242 7     -2740.196    20700148.609 7  84763648.164 7
       474.987  
 24 01 02 10 00 24.9000000  0  7G32G23G18G27G10G24G15
  22897942.973 7 120329502.480 7      2570.021    20086073.561 7  82249113.498 7
      -648.570  
  20700137.009 7 108779954.188 7       609.547    21011093.141 7  86036914.045 7
       268.923  
  20086073.561 7 105553028.990 7      -832.331    22897942.973 7  93763248.686 7
      2002.613  
  23522220.766 7 123610104.424 7       200.539    23522220.766 7  96319561.889 7
       156.264  
  22423780.462 7 117837761.669 7      1954.031    22423780.462 7  91821632.469 7
      1522.621  
  21011093.141 7 110414039.691 7       345.118    21563200.275 7  88297700.465 7
     -2135.235  
  21563200.275 7 113315382.263 7     -2740.218    20700137.009 7  84763600.666 7
       474.972  
 24 01 02 10 00 25.0000000  0  7G32G23G18G27G10G24G15
  22897894.067 7 120329245.480 7      2569.993    20086089.401 7  82249178.358 7
      -648.619  
  20700125.410 7 108779893.234 7       609.528    21011086.574 7  86036887.155 7
       268.869  
  20086089.401 7 105553112.226 7      -832.394    22897894.067 7  93763048.426 7
      2002.592  
  23522216.950 7 123610084.373 7       200.477    23522216.950 7  96319546.265 7
       156.216  
  22423743.278 7 117837566.266 7      1954.027    22423743.278 7  91821480.207 7
      1522.618  
  21011086.574 7 110414005.182 7       345.049    21563252.420 7  88297913.989 7
     -2135.251  
  21563252.420 7 113315656.286 7     -2740.239    20700125.410 7  84763553.170 7
       474.957  
 24 01 02 10 00 25.1000000  0  7G32G23G18G27G10G24G15
  22897845.162 7 120328988.482 7      2569.965    20086105.241 7  82249243.222 7
      -648.668  
  20700113.811 7 108779832.282 7       609.509    21011080.009 7  86036860.271 7
       268.816  
  20086105.241 7 105553195.468 7      -832.457    22897845.162 7  93762848.168 7
      2002.570  
  23522213.136 7 123610064.328 7       200.416    23522213.136 7  96319530.646 7
       156.168  
  22423706.095 7 117837370.864 7      1954.023    22423706.095 7  91821327.946 7
      1522.615  
  21011080.009 7 110413970.681 7       344.981    21563304.565 7  88298127.515 7
     -2135.268  
  21563304.565 7 113315930.311 7     -2740.261    20700113.811 7  84763505.675 7
       474.942  
 24 01 02 10 00 25.2000000  0  7G32G23G18G27G10G24G15
  22897796.258 7 120328731.487 7      2569.938    20086121.083 7  82249308.091 7
      -648.716  
  20700102.213 7 108779771.333 7       609.490    21011073.445 7  86036833.392 7
       268.763  
  20086121.083 7 105553278.717 7      -832.519    22897796.258 7  93762647.912 7
      2002.549  
  23522209.323 7 123610044.290 7       200.354    23522209.323 7  96319515.031 7
       156.120  
  22423668.911 7 117837175.462 7      1954.019    22423668.911 7  91821175.684 7
      1522.612  
  21011073.445 7 110413936.186 7       344.912    21563356.711 7  88298341.043 7
     -2135.285  
  21563356.711 7 113316204.338 7     -2740.282    20700102.213 7  84763458.181 7
       474.927  
 24 01 02 10 00 25.3000000  0  7G32G23G18G27G10G24G15
  22897747.354 7 120328474.494 7      2569.910    20086136.926 7  82249372.965 7
      -648.765  
  20700090.615 7 108779710.385 7       609.470    21011066.882 7  86036806.518 7
       268.709  
  20086136.926 7 105553361.972 7      -832.582    22897747.354 7  93762447.658 7
      2002.527  
  23522205.511 7 123610024.258 7       200.292    23522205.511 7  96319499.422 7
       156.072  
  22423631.727 7 117836980.060 7      1954.016    22423631.727 7  91821023.423 7
      1522.610  
  21011066.882 7 110413901.698 7       344.844    21563408.857 7  88298554.572 7
     -2135.302  
  21563408.857 7 113316478.367 7     -2740.304    20700090.615 7  84763410.689 7
       474.912  
 24 01 02 10 00 25.4000000  0  7G32G23G18G27G10G24G15
  22897698.450 7 120328217.505 7      2569.882    20086152.770 7  82249437.844 7
      -648.814  
  20700079.017 7 108779649.439 7       609.451    21011060.321 7  86036779.650 7
       268.656  
  20086152.770 7 105553445.234 7      -832.645    22897698.450 7  93762247.406 7
      2002.506  
  23522201.700 7 123610004.231 7       200.230    23522201.700 7  96319483.817 7
       156.024  
  22423594.543 7 117836784.659 7      1954.012    22423594.543 7  91820871.162 7
      1522.607  
  21011060.321 7 110413867.217 7       344.775    21563461.004 7  88298768.103 7
     -2135.319  
  21563461.004 7 113316752.399 7     -2740.326    20700079.017 7  84763363.199 7
       474.897  
 24 01 02 10 00 25.5000000  0  7G32G23G18G27G10G24G15
  22897649.547 7 120327960.518 7      2569.854    20086168.615 7  82249502.728 7
      -648.863  
  20700067.420 7 108779588.494 7       609.432    21011053.760 7  86036752.787 7
       268.603  
  20086168.615 7 105553528.501 7      -832.708    22897649.547 7  93762047.157 7
      2002.484  
  23522197.890 7 123609984.212 7       200.169    23522197.890 7  96319468.217 7
       155.976  
  22423557.360 7 117836589.257 7      1954.008    22423557.360 7  91820718.902 7
      1522.604  
  21011053.760 7 110413832.743 7       344.707    21563513.150 7  88298981.636 7
     -2135.335  
  21563513.150 7 113317026.432 7     -2740.347    20700067.420 7  84763315.710 7
       474.882  
 24 01 02 10 00 25.6000000  0  7G32G23G18G27G10G24G15
  22897600.645 7 120327703.533 7      2569.905    20086184.462 7  82249567.617 7
      -648.918  
  20700055.823 7 108779527.552 7       609.412    21011047.202 7  86036725.930 7
       268.498  
  20086184.462 7 105553611.775 7      -832.778    22897600.645 7  93761846.909 7
      2002.524  
  23522194.082 7 123609964.197 7       200.184    23522194.082 7  96319452.621 7
       155.987  
  22423520.176 7 117836393.856 7      1954.064    22423520.176 7  91820566.641 7
      1522.647  
  21011047.202 7 110413798.276 7       344.572    21563565.298 7  88299195.170 7
     -2135.400  
  21563565.298 7 113317300.469 7     -2740.430    20700055.823 7  84763268.222 7
       474.866  
 24 01 02 10 00 25.7000000  0  7G32G23G18G27G10G24G15
  22897551.736 7 120327446.517 7      2570.413    20086200.310 7  82249632.513 7
      -649.006  
  20700044.227 7 108779466.612 7       609.386    21011040.650 7  86036699.100 7
       268.095  
  20086200.310 7 105553695.059 7      -832.892    22897551.736 7  93761646.637 7
      2002.919  
  23522190.268 7 123609944.156 7       200.644    23522190.268 7  96319437.005 7
       156.346  
  22423482.988 7 117836198.430 7      1954.468    22423482.988 7  91820414.361 7
      1522.962  
  21011040.650 7 110413763.845 7       344.055    21563617.451 7  88299408.727 7
     -2135.742  
  21563617.451 7 113317574.534 7     -2740.869    20700044.227 7  84763220.737 7
       474.846  
 24 01 02 10 00 25.8000000  0  7G32G23G18G27G10G24G15
  22897502.818 7 120327189.451 7      2570.920    20086216.161 7  82249697.418 7
      -649.095  
  20700032.631 7 108779405.675 7       609.361    21011034.107 7  86036672.311 7
       267.692  
  20086216.161 7 105553778.353 7      -833.005    22897502.818 7  93761446.325 7
      2003.314  
  23522186.445 7 123609924.068 7       201.105    23522186.445 7  96319421.352 7
       156.705  
  22423445.792 7 117836002.963 7      1954.872    22423445.792 7  91820262.049 7
      1523.277  
  21011034.107 7 110413729.465 7       343.538    21563669.612 7  88299622.319 7
     -2136.084  
  21563669.612 7 113317848.642 7     -2741.308    20700032.631 7  84763173.253 7
       474.827  
 24 01 02 10 00 25.9000000  0  7G32G23G18G27G10G24G15
  22897453.890 7 120326932.333 7      2571.427    20086232.013 7  82249762.332 7
      -649.183  
  20700021.035 7 108779344.740 7       609.336    21011027.575 7  86036645.562 7
       267.289  
  20086232.013 7 105553861.660 7      -833.118    22897453.890 7  93761245.974 7
      2003.709  
  23522182.614 7 123609903.935 7       201.566    23522182.614 7  96319405.663 7
       157.065  
  22423408.588 7 117835807.456 7      1955.276    22423408.588 7  91820109.706 7
      1523.591  
  21011027.575 7 110413695.138 7       343.020    21563721.781 7  88299835.944 7
     -2136.427  
  21563721.781 7 113318122.795 7     -2741.747    20700021.035 7  84763125.771 7
       474.807  
 24 01 02 10 00 26.0000000  0  7G32G23G18G27G10G24G15
  22897404.953 7 120326675.165 7      2571.934    20086247.868 7  82249827.255 7
      -649.271  
  20700009.440 7 108779283.808 7       609.310    21011021.052 7  86036618.853 7
       266.886  
  20086247.868 7 105553944.977 7      -833.232    22897404.953 7  93761045.583 7
      2004.105  
  23522178.774 7 123609883.755 7       202.027    23522178.774 7  96319389.939 7
       157.424  
  22423371.376 7 117835611.908 7      1955.679    22423371.376 7  91819957.331 7
      1523.906  
  21011021.052 7 110413660.861 7       342.503    21563773.959 7  88300049.604 7
     -2136.769  
  21563773.959 7 113318396.992 7     -2742.187    20700009.440 7  84763078.292 7
       474.787  
 24 01 02 10 00 26.1000000  0  7G32G23G18G27G10G24G15
  22897356.006 7 120326417.947 7      2572.363    20086263.725 7  82249892.186 7
      -649.354  
  20699997.846 7 108779222.878 7       609.286    21011014.540 7  86036592.184 7
       266.534  
  20086263.725 7 105554028.306 7      -833.338    22897356.006 7  93760845.154 7
      2004.439  
  23522174.925 7 123609863.530 7       202.411    23522174.925 7  96319374.179 7
       157.723  
  22423334.157 7 117835416.320 7      1956.023    22423334.157 7  91819804.925 7
      1524.174  
  21011014.540 7 110413626.637 7       342.052    21563826.145 7  88300263.298 7
     -2137.063  
  21563826.145 7 113318671.232 7     -2742.565    20699997.846 7  84763030.814 7
       474.768  
 24 01 02 10 00 26.2000000  0  7G32G23G18G27G10G24G15
  22897307.056 7 120326160.712 7      2572.336    20086279.583 7  82249957.124 7
      -649.403  
  20699986.251 7 108779161.950 7       609.266    21011008.031 7  86036565.534 7
       266.480  
  20086279.583 7 105554111.643 7      -833.400    22897307.056 7  93760644.711 7
      2004.417  
  23522171.074 7 123609843.292 7       202.350    23522171.074 7  96319358.409 7
       157.675  
  22423296.935 7 117835220.718 7      1956.019    22423296.935 7  91819652.507 7
      1524.171  
  21011008.031 7 110413592.435 7       341.983    21563878.335 7  88300477.005 7
     -2137.080  
  21563878.335 7 113318945.490 7     -2742.586    20699986.251 7  84762983.338 7
       474.753  
 24 01 02 10 00 26.3000000  0  7G32G23G18G27G10G24G15
  22897258.106 7 120325903.480 7      2572.308    20086295.443 7  82250022.067 7
      -649.452  
  20699974.658 7 108779101.025 7       609.247    21011001.524 7  86036538.888 7
       266.427  
  20086295.443 7 105554194.986 7      -833.463    22897258.106 7  93760444.270 7
      2004.396  
  23522167.224 7 123609823.060 7       202.288    23522167.224 7  96319342.644 7
       157.627  
  22423259.714 7 117835025.116 7      1956.016    22423259.714 7  91819500.090 7
      1524.168  
  21011001.524 7 110413558.240 7       341.915    21563930.525 7  88300690.714 7
     -2137.097  
  21563930.525 7 113319219.749 7     -2742.608    20699974.658 7  84762935.863 7
       474.738  
 24 01 02 10 00 26.4000000  0  7G32G23G18G27G10G24G15
  22897209.157 7 120325646.250 7      2572.280    20086311.304 7  82250087.015 7
      -649.501  
  20699963.064 7 108779040.101 7       609.228    21010995.018 7  86036512.248 7
       266.374  
  20086311.304 7 105554278.336 7      -833.526    22897209.157 7  93760243.832 7
      2004.374  
  23522163.375 7 123609802.834 7       202.226    23522163.375 7  96319326.884 7
       157.579  
  22423222.492 7 117834829.515 7      1956.012    22423222.492 7  91819347.674 7
      1524.165  
  21010995.018 7 110413524.052 7       341.846    21563982.715 7  88300904.424 7
     -2137.114  
  21563982.715 7 113319494.011 7     -2742.629    20699963.064 7  84762888.390 7
       474.723  
 24 01 02 10 00 26.5000000  0  7G32G23G18G27G10G24G15
  22897160.208 7 120325389.024 7      2572.252    20086327.166 7  82250151.967 7
      -649.550  
  20699951.471 7 108778979.179 7       609.208    21010988.514 7  86036485.613 7
       266.320  
  20086327.166 7 105554361.691 7      -833.589    22897160.208 7  93760043.395 7
      2004.353  
  23522159.528 7 123609782.615 7       202.164    23522159.528 7  96319311.128 7
       157.531  
  22423185.270 7 117834633.914 7      1956.008    22423185.270 7  91819195.257 7
      1524.162  
  21010988.514 7 110413489.871 7       341.778    21564034.906 7  88301118.137 7
     -2137.131  
  21564034.906 7 113319768.275 7     -2742.651    20699951.471 7  84762840.919 7
       474.708  
 24 01 02 10 00 26.6000000  0  7G32G23G18G27G10G24G15
  22897111.260 7 120325131.800 7      2572.225    20086343.029 7  82250216.925 7
      -649.599  
  20699939.879 7 108778918.259 7       609.189    21010982.011 7  86036458.984 7
       266.267  
  20086343.029 7 105554445.053 7      -833.652    22897111.260 7  93759842.961 7
      2004.331  
  23522155.681 7 123609762.401 7       202.103    23522155.681 7  96319295.378 7
       157.483  
  22423148.049 7 117834438.313 7      1956.004    22423148.049 7  91819042.841 7
      1524.159  
  21010982.011 7 110413455.696 7       341.709    21564087.097 7  88301331.851 7
     -2137.148  
  21564087.097 7 113320042.542 7     -2742.673    20699939.879 7  84762793.449 7
       474.693  
 24 01 02 10 00 26.7000000  0  7G32G23G18G27G10G24G15
  22897062.313 7 120324874.579 7      2572.197    20086358.894 7  82250281.887 7
      -649.648  
  20699928.286 7 108778857.341 7       609.170    21010975.509 7  86036432.360 7
       266.214  
  20086358.894 7 105554528.422 7      -833.715    22897062.313 7  93759642.529 7
      2004.309  
  23522151.836 7 123609742.194 7       202.041    23522151.836 7  96319279.632 7
       157.435  
  22423110.827 7 117834242.713 7      1956.000    22423110.827 7  91818890.426 7
      1524.156  
  21010975.509 7 110413421.529 7       341.641    21564139.288 7  88301545.566 7
     -2137.164  
  21564139.288 7 113320316.810 7     -2742.694    20699928.286 7  84762745.980 7
       474.678  
 24 01 02 10 00 26.8000000  0  7G32G23G18G27G10G24G15
  22897013.366 7 120324617.361 7      2572.169    20086374.760 7  82250346.854 7
      -649.697  
  20699916.694 7 108778796.426 7       609.150    21010969.008 7  86036405.741 7
       266.160  
  20086374.760 7 105554611.796 7      -833.778    22897013.366 7  93759442.099 7
      2004.288  
  23522147.992 7 123609721.993 7       201.979    23522147.992 7  96319263.891 7
       157.387  
  22423073.606 7 117834047.113 7      1955.996    22423073.606 7  91818738.010 7
      1524.153  
  21010969.008 7 110413387.368 7       341.572    21564191.480 7  88301759.283 7
     -2137.181  
  21564191.480 7 113320591.080 7     -2742.716    20699916.694 7  84762698.513 7
       474.662  
 24 01 02 10 00 26.9000000  0  7G32G23G18G27G10G24G15
  22896964.419 7 120324360.145 7      2572.142    20086390.626 7  82250411.826 7
      -649.746  
  20699905.103 7 108778735.511 7       609.131    21010962.509 7  86036379.128 7
       266.107  
  20086390.626 7 105554695.177 7      -833.840    22896964.419 7  93759241.671 7
      2004.266  
  23522144.149 7 123609701.798 7       201.918    23522144.149 7  96319248.155 7
       157.339  
  22423036.385 7 117833851.514 7      1955.993    22423036.385 7  91818585.595 7
      1524.150  
  21010962.509 7 110413353.214 7       341.504    21564243.673 7  88301973.002 7
     -2137.198  
  21564243.673 7 113320865.353 7     -2742.737    20699905.103 7  84762651.048 7
       474.647  
 24 01 02 10 00 27.0000000  0  7G32G23G18G27G10G24G15
  22896915.473 7 120324102.932 7      2572.114    20086406.494 7  82250476.803 7
      -649.795  
  20699893.512 7 108778674.599 7       609.111    21010956.011 7  86036352.520 7
       266.053  
  20086406.494 7 105554778.564 7      -833.903    22896915.473 7  93759041.246 7
      2004.245  
  23522140.307 7 123609681.610 7       201.856    23522140.307 7  96319232.423 7
       157.290  
  22422999.163 7 117833655.915 7      1955.989    22422999.163 7  91818433.180 7
      1524.147  
  21010956.011 7 110413319.067 7       341.435    21564295.865 7  88302186.723 7
     -2137.215  
  21564295.865 7 113321139.628 7     -2742.759    20699893.512 7  84762603.584 7
       474.632  
 24 01 02 10 00 27.1000000  0  7G32G23G18G27G10G24G15
  22896866.528 7 120323845.722 7      2572.086    20086422.364 7  82250541.785 7
      -649.844  
  20699881.921 7 108778613.689 7       609.092    21010949.515 7  86036325.917 7
       266.000  
  20086422.364 7 105554861.958 7      -833.966    22896866.528 7  93758840.823 7
      2004.223  
  23522136.466 7 123609661.427 7       201.794    23522136.466 7  96319216.696 7
       157.242  
  22422961.942 7 117833460.316 7      1955.985    22422961.942 7  91818280.766 7
      1524.144  
  21010949.515 7 110413284.927 7       341.367    21564348.059 7  88302400.445 7
     -2137.232  
  21564348.059 7 113321413.905 7     -2742.781    20699881.921 7  84762556.121 7
       474.617  
 24 01 02 10 00 27.2000000  0  7G32G23G18G27G10G24G15
  22896817.583 7 120323588.515 7      2572.059    20086438.234 7  82250606.772 7
      -649.893  
  20699870.330 7 108778552.781 7       609.073    21010943.019 7  86036299.320 7
       265.947  
  20086438.234 7 105554945.358 7      -834.029    22896817.583 7  93758640.401 7
      2004.202  
  23522132.627 7 123609641.251 7       201.733    23522132.627 7  96319200.975 7
       157.194  
  22422924.721 7 117833264.718 7      1955.981    22422924.721 7  91818128.351 7
      1524.141  
  21010943.019 7 110413250.794 7       341.298    21564400.252 7  88302614.169 7
     -2137.248  
  21564400.252 7 113321688.184 7     -2742.802    20699870.330 7  84762508.660 7
       474.602  
 24 01 02 10 00 27.3000000  0  7G32G23G18G27G10G24G15
  22896768.638 7 120323331.310 7      2572.031    20086454.106 7  82250671.764 7
      -649.942  
  20699858.740 7 108778491.875 7       609.053    21010936.525 7  86036272.728 7
       265.893  
  20086454.106 7 105555028.764 7      -834.092    22896768.638 7  93758439.982 7
      2004.180  
  23522128.789 7 123609621.081 7       201.671    23522128.789 7  96319185.258 7
       157.146  
  22422887.500 7 117833069.120 7      1955.977    22422887.500 7  91817975.937 7
      1524.138  
  21010936.525 7 110413216.668 7       341.230    21564452.446 7  88302827.895 7
     -2137.265  
  21564452.446 7 113321962.465 7     -2742.824    20699858.740 7  84762461.201 7
       474.587  
 24 01 02 10 00 27.4000000  0  7G32G23G18G27G10G24G15
  22896719.695 7 120323074.109 7      2572.003    20086469.979 7  82250736.760 7
      -649.991  
  20699847.151 7 108778430.970 7       609.034    21010930.032 7  86036246.141 7
       265.840  
  20086469.979 7 105555112.176 7      -834.155    22896719.695 7  93758239.565 7
      2004.158  
  23522124.952 7 123609600.917 7       201.609    23522124.952 7  96319169.545 7
       157.098  
  22422850.279 7 117832873.522 7      1955.974    22422850.279 7  91817823.524 7
      1524.135  
  21010930.032 7 110413182.548 7       341.161    21564504.641 7  88303041.622 7
     -2137.282  
  21564504.641 7 113322236.749 7     -2742.845    20699847.151 7  84762413.743 7
       474.572  
 24 01 02 10 00 27.5000000  0  7G32G23G18G27G10G24G15
  22896670.751 7 120322816.910 7      2571.976    20086485.853 7  82250801.762 7
      -650.040  
  20699835.561 7 108778370.068 7       609.015    21010923.541 7  86036219.560 7
       265.787  
  20086485.853 7 105555195.595 7      -834.217    22896670.751 7  93758039.151 7
      2004.137  
  23522121.116 7 123609580.759 7       201.548    23522121.116 7  96319153.838 7
       157.050  
  22422813.058 7 117832677.925 7      1955.970    22422813.058 7  91817671.110 7
      1524.132  
  21010923.541 7 110413148.435 7       341.093    21564556.835 7  88303255.351 7
     -2137.299  
  21564556.835 7 113322511.034 7     -2742.867    20699835.561 7  84762366.287 7
       474.557  
 24 01 02 10 00 27.6000000  0  7G32G23G18G27G10G24G15
  22896621.808 7 120322559.714 7      2571.948    20086501.728 7  82250866.768 7
      -650.089  
  20699823.972 7 108778309.167 7       608.995    21010917.051 7  86036192.984 7
       265.733  
  20086501.728 7 105555279.019 7      -834.280    22896621.808 7  93757838.738 7
      2004.115  
  23522117.281 7 123609560.607 7       201.486    23522117.281 7  96319138.135 7
       157.002  
  22422775.837 7 117832482.328 7      1955.966    22422775.837 7  91817518.697 7
      1524.129  
  21010917.051 7 110413114.330 7       341.024    21564609.031 7  88303469.082 7
     -2137.316  
  21564609.031 7 113322785.322 7     -2742.889    20699823.972 7  84762318.832 7
       474.542  
 24 01 02 10 00 27.7000000  0  7G32G23G18G27G10G24G15
  22896572.866 7 120322302.520 7      2571.920    20086517.604 7  82250931.780 7
      -650.137  
  20699812.384 7 108778248.269 7       608.976    21010910.562 7  86036166.413 7
       265.680  
  20086517.604 7 105555362.450 7      -834.343    22896572.866 7  93757638.327 7
      2004.094  
  23522113.447 7 123609540.461 7       201.424    23522113.447 7  96319122.437 7
       156.954  
  22422738.616 7 117832286.732 7      1955.962    22422738.616 7  91817366.284 7
      1524.126  
  21010910.562 7 110413080.230 7       340.956    21564661.226 7  88303682.815 7
     -2137.333  
  21564661.226 7 113323059.612 7     -2742.910    20699812.384 7  84762271.378 7
       474.527  
 24 01 02 10 00 27.8000000  0  7G32G23G18G27G10G24G15
  22896523.924 7 120322045.330 7      2571.893    20086533.482 7  82250996.796 7
      -650.186  
  20699800.795 7 108778187.372 7       608.957    21010904.075 7  86036139.848 7
       265.627  
  20086533.482 7 105555445.888 7      -834.406    22896523.924 7  93757437.919 7
      2004.072  
  23522109.615 7 123609520.322 7       201.363    23522109.615 7  96319106.744 7
       156.906  
  22422701.396 7 117832091.136 7      1955.958    22422701.396 7  91817213.872 7
      1524.123  
  21010904.075 7 110413046.138 7       340.887    21564713.422 7  88303896.549 7
     -2137.349  
  21564713.422 7 113323333.904 7     -2742.932    20699800.795 7  84762223.926 7
       474.512  
 24 01 02 10 00 27.9000000  0  7G32G23G18G27G10G24G15
  22896474.983 7 120321788.142 7      2571.865    20086549.361 7  82251061.817 7
      -650.235  
  20699789.208 7 108778126.477 7       608.937    21010897.588 7  86036113.288 7
       265.573  
  20086549.361 7 105555529.332 7      -834.469    22896474.983 7  93757237.513 7
      2004.051  
  23522105.784 7 123609500.189 7       201.301    23522105.784 7  96319091.056 7
       156.858  
  22422664.175 7 117831895.540 7      1955.954    22422664.175 7  91817061.460 7
      1524.120  
  21010897.588 7 110413012.053 7       340.819    21564765.619 7  88304110.284 7
     -2137.366  
  21564765.619 7 113323608.198 7     -2742.953    20699789.208 7  84762176.476 7
       474.497  
 24 01 02 10 00 28.0000000  0  7G32G23G18G27G10G24G15
  22896426.042 7 120321530.957 7      2571.837    20086565.241 7  82251126.843 7
      -650.284  
  20699777.620 7 108778065.585 7       608.918    21010891.103 7  86036086.733 7
       265.520  
  20086565.241 7 105555612.782 7      -834.532    22896426.042 7  93757037.109 7
      2004.029  
  23522101.954 7 123609480.062 7       201.239    23522101.954 7  96319075.373 7
       156.810  
  22422626.955 7 117831699.945 7      1955.951    22422626.955 7  91816909.048 7
      1524.117  
  21010891.103 7 110412977.975 7       340.750    21564817.816 7  88304324.022 7
     -2137.383  
  21564817.816 7 113323882.495 7     -2742.975    20699777.620 7  84762129.027 7
       474.481  
 24 01 02 10 00 28.1000000  0  7G32G23G18G27G10G24G15
  22896377.102 7 120321273.774 7      2571.809    20086581.122 7  82251191.874 7
      -650.333  
  20699766.033 7 108778004.694 7       608.899    21010884.620 7  86036060.184 7
       265.466  
  20086581.122 7 105555696.238 7      -834.594    22896377.102 7  93756836.707 7
      2004.007  
  23522098.125 7 123609459.941 7       201.178    23522098.125 7  96319059.694 7
       156.762  
  22422589.734 7 117831504.350 7      1955.947    22422589.734 7  91816756.636 7
      1524.114  
  21010884.620 7 110412943.903 7       340.682    21564870.013 7  88304537.761 7
     -2137.400  
  21564870.013 7 113324156.793 7     -2742.996    20699766.033 7  84762081.580 7
       474.466  
 24 01 02 10 00 28.2000000  0  7G32G23G18G27G10G24G15
  22896328.163 7 120321016.595 7      2571.782    20086597.004 7  82251256.910 7
      -650.382  
  20699754.446 7 108777943.805 7       608.879    21010878.137 7  86036033.640 7
       265.413  
  20086597.004 7 105555779.701 7      -834.657    22896328.163 7  93756636.308 7
      2003.986  
  23522094.297 7 123609439.826 7       201.116    23522094.297 7  96319044.021 7
       156.714  
  22422552.514 7 117831308.756 7      1955.943    22422552.514 7  91816604.225 7
      1524.111  
  21010878.137 7 110412909.838 7       340.613    21564922.211 7  88304751.502 7
     -2137.417  
  21564922.211 7 113324431.094 7     -2743.018    20699754.446 7  84762034.134 7
       474.451  
 24 01 02 10 00 28.3000000  0  7G32G23G18G27G10G24G15
  22896279.224 7 120320759.418 7      2571.754    20086612.888 7  82251321.950 7
      -650.431  
  20699742.860 7 108777882.918 7       608.860    21010871.656 7  86036007.101 7
       265.360  
  20086612.888 7 105555863.169 7      -834.720    22896279.224 7  93756435.910 7
      2003.964  
  23522090.471 7 123609419.718 7       201.054    23522090.471 7  96319028.352 7
       156.666  
  22422515.293 7 117831113.161 7      1955.939    22422515.293 7  91816451.814 7
      1524.108  
  21010871.656 7 110412875.780 7       340.545    21564974.409 7  88304965.244 7
     -2137.433  
  21564974.409 7 113324705.397 7     -2743.040    20699742.860 7  84761986.689 7
       474.436  
 24 01 02 10 00 28.4000000  0  7G32G23G18G27G10G24G15
  22896230.285 7 120320502.244 7      2571.726    20086628.773 7  82251386.996 7
      -650.480  
  20699731.274 7 108777822.033 7       608.840    21010865.177 7  86035980.568 7
       265.306  
  20086628.773 7 105555946.645 7      -834.783    22896230.285 7  93756235.515 7
      2003.943  
  23522086.645 7 123609399.616 7       200.993    23522086.645 7  96319012.687 7
       156.618  
  22422478.073 7 117830917.568 7      1955.935    22422478.073 7  91816299.403 7
      1524.105  
  21010865.177 7 110412841.729 7       340.476    21565026.607 7  88305178.989 7
     -2137.450  
  21565026.607 7 113324979.702 7     -2743.061    20699731.274 7  84761939.246 7
       474.421  
 24 01 02 10 00 28.5000000  0  7G32G23G18G27G10G24G15
  22896181.347 7 120320245.073 7      2571.699    20086644.659 7  82251452.046 7
      -650.529  
  20699719.688 7 108777761.150 7       608.821    21010858.698 7  86035954.040 7
       265.253  
  20086644.659 7 105556030.126 7      -834.846    22896181.347 7  93756035.122 7
      2003.921  
  23522082.821 7 123609379.519 7       200.931    23522082.821 7  96318997.028 7
       156.570  
  22422440.853 7 117830721.974 7      1955.931    22422440.853 7  91816146.993 7
      1524.102  
  21010858.698 7 110412807.685 7       340.408    21565078.806 7  88305392.734 7
     -2137.467  
  21565078.806 7 113325254.009 7     -2743.083    20699719.688 7  84761891.805 7
       474.406  
 24 01 02 10 00 28.6000000  0  7G32G23G18G27G10G24G15
  22896132.409 7 120319987.904 7      2571.671    20086660.546 7  82251517.102 7
      -650.578  
  20699708.103 7 108777700.269 7       608.802    21010852.221 7  86035927.518 7
       265.200  
  20086660.546 7 105556113.614 7      -834.909    22896132.409 7  93755834.731 7
      2003.899  
  23522078.998 7 123609359.429 7       200.869    23522078.998 7  96318981.374 7
       156.521  
  22422403.633 7 117830526.381 7      1955.928    22422403.633 7  91815994.583 7
      1524.099  
  21010852.221 7 110412773.648 7       340.339    21565131.006 7  88305606.482 7
     -2137.484  
  21565131.006 7 113325528.318 7     -2743.104    20699708.103 7  84761844.365 7
       474.391  
 24 01 02 10 00 28.7000000  0  7G32G23G18G27G10G24G15
  22896083.472 7 120319730.738 7      2571.643    20086676.434 7  82251582.162 7
      -650.627  
  20699696.518 7 108777639.390 7       608.782    21010845.745 7  86035901.000 7
       265.146  
  20086676.434 7 105556197.108 7      -834.972    22896083.472 7  93755634.342 7
      2003.878  
  23522075.176 7 123609339.346 7       200.808    23522075.176 7  96318965.724 7
       156.473  
  22422366.413 7 117830330.789 7      1955.924    22422366.413 7  91815842.173 7
      1524.096  
  21010845.745 7 110412739.617 7       340.271    21565183.205 7  88305820.231 7
     -2137.501  
  21565183.205 7 113325802.630 7     -2743.126    20699696.518 7  84761796.927 7
       474.376  
 24 01 02 10 00 28.8000000  0  7G32G23G18G27G10G24G15
  22896034.536 7 120319473.576 7      2571.616    20086692.324 7  82251647.227 7
      -650.676  
  20699684.933 7 108777578.512 7       608.763    21010839.271 7  86035874.488 7
       265.093  
  20086692.324 7 105556280.608 7      -835.034    22896034.536 7  93755433.955 7
      2003.856  
  23522071.356 7 123609319.268 7       200.746    23522071.356 7  96318950.079 7
       156.425  
  22422329.193 7 117830135.197 7      1955.920    22422329.193 7  91815689.764 7
      1524.093  
  21010839.271 7 110412705.593 7       340.202    21565235.405 7  88306033.982 7
     -2137.517  
  21565235.405 7 113326076.944 7     -2743.147    20699684.933 7  84761749.490 7
       474.361  
 24 01 02 10 00 28.9000000  0  7G32G23G18G27G10G24G15
  22895985.600 7 120319216.415 7      2571.588    20086708.215 7  82251712.297 7
      -650.725  
  20699673.349 7 108777517.637 7       608.744    21010832.798 7  86035847.982 7
       265.039  
  20086708.215 7 105556364.115 7      -835.097    22895985.600 7  93755233.570 7
      2003.835  
  23522067.536 7 123609299.196 7       200.684    23522067.536 7  96318934.439 7
       156.377  
  22422291.973 7 117829939.605 7      1955.916    22422291.973 7  91815537.354 7
      1524.091  
  21010832.798 7 110412671.577 7       340.134    21565287.606 7  88306247.735 7
     -2137.534  
  21565287.606 7 113326351.259 7     -2743.169    20699673.349 7  84761702.055 7
       474.346  
 24 01 02 10 00 29.0000000  0  7G32G23G18G27G10G24G15
  22895936.664 7 120318959.258 7      2571.560    20086724.107 7  82251777.372 7
      -650.774  
  20699661.765 7 108777456.764 7       608.724    21010826.326 7  86035821.480 7
       264.986  
  20086724.107 7 105556447.628 7      -835.160    22895936.664 7  93755033.188 7
      2003.813  
  23522063.718 7 123609279.131 7       200.622    23522063.718 7  96318918.803 7
       156.329  
  22422254.753 7 117829744.013 7      1955.912    22422254.753 7  91815384.945 7
      1524.088  
  21010826.326 7 110412637.567 7       340.065    21565339.807 7  88306461.489 7
     -2137.551  
  21565339.807 7 113326625.578 7     -2743.191    20699661.765 7  84761654.621 7
       474.331  
 24 01 02 10 00 29.1000000  0  7G32G23G18G27G10G24G15
  22895887.730 7 120318702.103 7      2571.533    20086740.000 7  82251842.452 7
      -650.823  
  20699650.182 7 108777395.892 7       608.705    21010819.855 7  86035794.985 7
       264.933  
  20086740.000 7 105556531.147 7      -835.223    22895887.730 7  93754832.808 7
      2003.792  
  23522059.901 7 123609259.072 7       200.561    23522059.901 7  96318903.173 7
       156.281  
  22422217.533 7 117829548.422 7      1955.908    22422217.533 7  91815232.537 7
      1524.085  
  21010819.855 7 110412603.564 7       339.997    21565392.008 7  88306675.245 7
     -2137.568  
  21565392.008 7 113326899.898 7     -2743.212    20699650.182 7  84761607.189 7
       474.316  
 24 01 02 10 00 29.2000000  0  7G32G23G18G27G10G24G15
  22895838.795 7 120318444.951 7      2571.505    20086755.894 7  82251907.537 7
      -650.872  
  20699638.599 7 108777335.023 7       608.686    21010813.386 7  86035768.494 7
       264.879  
  20086755.894 7 105556614.672 7      -835.286    22895838.795 7  93754632.430 7
      2003.770  
  23522056.085 7 123609239.019 7       200.499    23522056.085 7  96318887.547 7
       156.233  
  22422180.314 7 117829352.832 7      1955.905    22422180.314 7  91815080.129 7
      1524.082  
  21010813.386 7 110412569.567 7       339.929    21565444.210 7  88306889.003 7
     -2137.585  
  21565444.210 7 113327174.220 7     -2743.234    20699638.599 7  84761559.758 7
       474.300  
 24 01 02 10 00 29.3000000  0  7G32G23G18G27G10G24G15
  22895789.861 7 120318187.802 7      2571.477    20086771.790 7  82251972.626 7
      -650.921  
  20699627.016 7 108777274.155 7       608.666    21010806.918 7  86035742.009 7
       264.826  
  20086771.790 7 105556698.204 7      -835.349    22895789.861 7  93754432.054 7
      2003.748  
  23522052.270 7 123609218.972 7       200.437    23522052.270 7  96318871.926 7
       156.185  
  22422143.094 7 117829157.241 7      1955.901    22422143.094 7  91814927.721 7
      1524.079  
  21010806.918 7 110412535.578 7       339.860    21565496.412 7  88307102.762 7
     -2137.602  
  21565496.412 7 113327448.544 7     -2743.255    20699627.016 7  84761512.329 7
       474.285  
 24 01 02 10 00 29.4000000  0  7G32G23G18G27G10G24G15
  22895740.928 7 120317930.656 7      2571.449    20086787.686 7  82252037.721 7
      -650.970  
  20699615.434 7 108777213.289 7       608.647    21010800.451 7  86035715.529 7
       264.773  
  20086787.686 7 105556781.742 7      -835.411    22895740.928 7  93754231.680 7
      2003.727  
  23522048.456 7 123609198.931 7       200.376    23522048.456 7  96318856.310 7
       156.137  
  22422105.875 7 117828961.652 7      1955.897    22422105.875 7  91814775.313 7
      1524.076  
  21010800.451 7 110412501.595 7       339.792    21565548.615 7  88307316.523 7
     -2137.618  
  21565548.615 7 113327722.871 7     -2743.277    20699615.434 7  84761464.901 7
       474.270  
 24 01 02 10 00 29.5000000  0  7G32G23G18G27G10G24G15
  22895691.995 7 120317673.513 7      2571.422    20086803.584 7  82252102.820 7
      -651.019  
  20699603.852 7 108777152.426 7       608.627    21010793.986 7  86035689.054 7
       264.719  
  20086803.584 7 105556865.286 7      -835.474    22895691.995 7  93754031.308 7
      2003.705  
  23522044.644 7 123609178.897 7       200.314    23522044.644 7  96318840.699 7
       156.089  
  22422068.655 7 117828766.062 7      1955.893    22422068.655 7  91814622.905 7
      1524.073  
  21010793.986 7 110412467.619 7       339.723    21565600.818 7  88307530.286 7
     -2137.635  
  21565600.818 7 113327997.200 7     -2743.298    20699603.852 7  84761417.475 7
       474.255  
 24 01 02 10 00 29.6000000  0  7G32G23G18G27G10G24G15
  22895643.063 7 120317416.372 7      2571.394    20086819.484 7  82252167.925 7
      -651.068  
  20699592.270 7 108777091.564 7       608.608    21010787.522 7  86035662.585 7
       264.666  
  20086819.484 7 105556948.837 7      -835.537    22895643.063 7  93753830.939 7
      2003.684  
  23522040.833 7 123609158.869 7       200.252    23522040.833 7  96318825.092 7
       156.041  
  22422031.436 7 117828570.473 7      1955.889    22422031.436 7  91814470.498 7
      1524.070  
  21010787.522 7 110412433.651 7       339.655    21565653.021 7  88307744.050 7
     -2137.652  
  21565653.021 7 113328271.531 7     -2743.320    20699592.270 7  84761370.050 7
       474.240  
 24 01 02 10 00 29.7000000  0  7G32G23G18G27G10G24G15
  22895594.131 7 120317159.234 7      2571.366    20086835.384 7  82252233.034 7
      -651.117  
  20699580.689 7 108777030.704 7       608.589    21010781.059 7  86035636.121 7
       264.612  
  20086835.384 7 105557032.394 7      -835.600    22895594.131 7  93753630.572 7
      2003.662  
  23522037.023 7 123609138.846 7       200.191    23522037.023 7  96318809.491 7
       155.993  
  22421994.217 7 117828374.884 7      1955.885    22421994.217 7  91814318.092 7
      1524.067  
  21010781.059 7 110412399.689 7       339.586    21565705.225 7  88307957.816 7
     -2137.669  
  21565705.225 7 113328545.864 7     -2743.342    20699580.689 7  84761322.627 7
       474.225  
 24 01 02 10 00 29.8000000  0  7G32G23G18G27G10G24G15
  22895545.200 7 120316902.098 7      2571.339    20086851.285 7  82252298.148 7
      -651.166  
  20699569.108 7 108776969.846 7       608.569    21010774.598 7  86035609.662 7
       264.559  
  20086851.285 7 105557115.957 7      -835.663    22895545.200 7  93753430.207 7
      2003.640  
  23522033.214 7 123609118.830 7       200.129    23522033.214 7  96318793.894 7
       155.945  
  22421956.997 7 117828179.296 7      1955.882    22421956.997 7  91814165.685 7
      1524.064  
  21010774.598 7 110412365.733 7       339.518    21565757.430 7  88308171.584 7
     -2137.686  
  21565757.430 7 113328820.199 7     -2743.363    20699569.108 7  84761275.205 7
       474.210  
 24 01 02 10 00 29.9000000  0  7G32G23G18G27G10G24G15
  22895496.269 7 120316644.966 7      2571.311    20086867.188 7  82252363.267 7
      -651.215  
  20699557.527 7 108776908.990 7       608.550    21010768.138 7  86035583.209 7
       264.506  
  20086867.188 7 105557199.526 7      -835.726    22895496.269 7  93753229.844 7
      2003.619  
  23522029.406 7 123609098.821 7       200.067    23522029.406 7  96318778.302 7
       155.897  
  22421919.778 7 117827983.708 7      1955.878    22421919.778 7  91814013.279 7
      1524.061  
  21010768.138 7 110412331.785 7       339.449    21565809.634 7  88308385.353 7
     -2137.702  
  21565809.634 7 113329094.536 7     -2743.385    20699557.527 7  84761227.785 7
       474.195  
 24 01 02 10 00 30.0000000  0  7G32G23G18G27G10G24G15
  22895447.339 7 120316387.837 7      2571.261    20086883.092 7  82252428.391 7
      -651.262  
  20699545.947 7 108776848.136 7       608.531    21010761.679 7  86035556.761 7
       264.466  
  20086883.092 7 105557283.102 7      -835.787    22895447.339 7  93753029.483 7
      2003.580  
  23522025.599 7 123609078.817 7       199.985    23522025.599 7  96318762.715 7
       155.832  
  22421882.559 7 117827788.121 7      1955.858    22421882.559 7  91813860.873 7
      1524.045  
  21010761.679 7 110412297.843 7       339.398    21565861.839 7  88308599.124 7
     -2137.706  
  21565861.839 7 113329368.875 7     -2743.389    20699545.947 7  84761180.366 7
       474.180  
 24 01 02 10 00 30.1000000  0  7G32G23G18G27G10G24G15
  22895398.410 7 120316130.714 7      2571.192    20086898.997 7  82252493.520 7
      -651.309  
  20699534.367 7 108776787.284 7       608.513    21010755.220 7  86035530.316 7
       264.440  
  20086898.997 7 105557366.684 7      -835.846    22895398.410 7  93752829.128 7
      2003.526  
  23522021.795 7 123609058.824 7       199.884    23522021.795 7  96318747.136 7
       155.754  
  22421845.341 7 117827592.537 7      1955.823    22421845.341 7  91813708.470 7
      1524.018  
  21010755.220 7 110412263.905 7       339.364    21565914.044 7  88308812.894 7
     -2137.697  
  21565914.044 7 113329643.214 7     -2743.378    20699534.367 7  84761132.949 7
       474.166  
 24 01 02 10 00 30.2000000  0  7G32G23G18G27G10G24G15
  22895349.483 7 120315873.598 7      2571.118    20086914.903 7  82252558.653 7
      -651.353  
  20699522.788 7 108776726.434 7       608.491    21010748.763 7  86035503.873 7
       264.419  
  20086914.903 7 105557450.271 7      -835.903    22895349.483 7  93752628.778 7
      2003.468  
  23522017.992 7 123609038.841 7       199.772    23522017.992 7  96318731.564 7
       155.666  
  22421808.123 7 117827396.956 7      1955.780    22421808.123 7  91813556.070 7
      1523.984  
  21010748.763 7 110412229.970 7       339.337    21565966.249 7  88309026.663 7
     -2137.686  
  21565966.249 7 113329917.551 7     -2743.364    20699522.788 7  84761085.533 7
       474.149  
 24 01 02 10 00 30.3000000  0  7G32G23G18G27G10G24G15
  22895300.556 7 120315616.488 7      2571.125    20086930.810 7  82252623.789 7
      -651.355  
  20699511.210 7 108776665.589 7       608.347    21010742.305 7  86035477.431 7
       264.432  
  20086930.810 7 105557533.862 7      -835.906    22895300.556 7  93752428.432 7
      2003.474  
  23522014.193 7 123609018.874 7       199.515    23522014.193 7  96318716.006 7
       155.466  
  22421770.907 7 117827201.385 7      1955.591    22421770.907 7  91813403.677 7
      1523.837  
  21010742.305 7 110412196.036 7       339.354    21566018.454 7  88309240.434 7
     -2137.758  
  21566018.454 7 113330191.890 7     -2743.457    20699511.210 7  84761038.122 7
       474.037  
 24 01 02 10 00 30.4000000  0  7G32G23G18G27G10G24G15
  22895251.627 7 120315359.364 7      2571.419    20086946.716 7  82252688.919 7
      -651.228  
  20699499.638 7 108776604.777 7       607.821    21010735.847 7  86035450.984 7
       264.532  
  20086946.716 7 105557617.447 7      -835.742    22895251.627 7  93752228.076 7
      2003.703  
  23522010.401 7 123608998.952 7       198.837    23522010.401 7  96318700.482 7
       154.938  
  22421733.698 7 117827005.852 7      1954.972    22421733.698 7  91813251.313 7
      1523.354  
  21010735.847 7 110412162.096 7       339.482    21566070.663 7  88309454.224 7
     -2138.108  
  21566070.663 7 113330466.254 7     -2743.905    20699499.638 7  84760990.735 7
       473.626  
 24 01 02 10 00 30.5000000  0  7G32G23G18G27G10G24G15
  22895202.689 7 120315102.188 7      2572.194    20086962.616 7  82252754.028 7
      -650.893  
  20699488.081 7 108776544.046 7       606.679    21010729.384 7  86035424.520 7
       264.757  
  20086962.616 7 105557701.002 7      -835.313    22895202.689 7  93752027.679 7
      2004.307  
  23522006.629 7 123608979.129 7       197.503    23522006.629 7  96318685.035 7
       153.899  
  22421696.508 7 117826810.413 7      1953.678    22421696.508 7  91813099.023 7
      1522.346  
  21010729.384 7 110412128.134 7       339.771    21566122.887 7  88309668.071 7
     -2138.916  
  21566122.887 7 113330740.691 7     -2744.942    20699488.081 7  84760943.412 7
       472.737  
 24 01 02 10 00 30.6000000  0  7G32G23G18G27G10G24G15
  22895153.729 7 120314844.905 7      2573.578    20086978.505 7  82252819.089 7
      -650.292  
  20699476.553 7 108776483.467 7       604.749    21010722.914 7  86035398.027 7
       265.147  
  20086978.505 7 105557784.498 7      -834.542    22895153.729 7  93751827.199 7
      2005.385  
  23522002.890 7 123608959.479 7       195.322    23522002.890 7  96318669.724 7
       152.199  
  22421659.349 7 117826615.146 7      1951.514    22421659.349 7  91812946.867 7
      1520.660  
  21010722.914 7 110412094.134 7       340.272    21566175.137 7  88309882.026 7
     -2140.306  
  21566175.137 7 113331015.267 7     -2746.726    20699476.553 7  84760896.208 7
       471.233  
 24 01 02 10 00 30.7000000  0  7G32G23G18G27G10G24G15
  22895104.737 7 120314587.451 7      2575.626    20086994.375 7  82252884.076 7
      -649.394  
  20699465.070 7 108776423.125 7       601.939    21010716.432 7  86035371.484 7
       265.732  
  20086994.375 7 105557867.898 7      -833.388    22895104.737 7  93751626.585 7
      2006.982  
  23521999.202 7 123608940.096 7       192.180    23521999.202 7  96318654.620 7
       149.750  
  22421622.242 7 117826420.143 7      1948.368    22421622.242 7  91812794.917 7
      1518.208  
  21010716.432 7 110412060.072 7       341.022    21566227.429 7  88310096.153 7
     -2142.338  
  21566227.429 7 113331290.063 7     -2749.334    20699465.070 7  84760849.188 7
       469.043  
 24 01 02 10 00 30.8000000  0  7G32G23G18G27G10G24G15
  22895055.700 7 120314329.760 7      2578.259    20087010.220 7  82252948.959 7
      -648.235  
  20699453.649 7 108776363.105 7       598.361    21010709.934 7  86035344.875 7
       266.483  
  20087010.220 7 105557951.164 7      -831.901    22895055.700 7  93751425.787 7
      2009.033  
  23521995.581 7 123608921.072 7       188.202    23521995.581 7  96318639.796 7
       146.651  
  22421585.202 7 117826225.501 7      1944.365    22421585.202 7  91812643.247 7
      1515.090  
  21010709.934 7 110412025.923 7       341.987    21566279.778 7  88310310.513 7
     -2144.933  
  21566279.778 7 113331565.158 7     -2752.664    20699453.649 7  84760802.419 7
       466.255  
 24 01 02 10 00 30.9000000  0  7G32G23G18G27G10G24G15
  22895006.612 7 120314071.797 7      2581.028    20087026.025 7  82253013.679 7
      -645.994  
  20699442.318 7 108776303.563 7       592.039    21010703.398 7  86035318.109 7
       269.125  
  20087026.025 7 105558034.222 7      -829.026    22895006.612 7  93751224.777 7
      2011.190  
  23521992.077 7 123608902.658 7       179.289    23521992.077 7  96318625.447 7
       139.706  
  22421548.277 7 117826031.457 7      1935.782    22421548.277 7  91812492.044 7
      1508.402  
  21010703.398 7 110411991.574 7       345.377    21566332.200 7  88310525.171 7
     -2148.356  
  21566332.200 7 113331840.636 7     -2757.057    20699442.318 7  84760756.023 7
       461.329  
 24 01 02 10 00 31.0000000  0  7G32G23G18G27G10G24G15
  22894957.473 7 120313813.570 7      2583.420    20087041.773 7  82253078.162 7
      -643.707  
  20699431.114 7 108776244.683 7       585.676    21010696.789 7  86035291.050 7
       272.045  
  20087041.773 7 105558116.975 7      -826.091    22894957.473 7  93751023.561 7
      2013.054  
  23521988.756 7 123608885.203 7       169.925    23521988.756 7  96318611.846 7
       132.409  
  22421511.527 7 117825838.332 7      1926.835    22421511.527 7  91812341.558 7
      1501.430  
  21010696.789 7 110411956.847 7       349.125    21566384.705 7  88310740.171 7
     -2151.562  
  21566384.705 7 113332116.553 7     -2761.172    20699431.114 7  84760710.143 7
       456.371  
 24 01 02 10 00 31.1000000  0  7G32G23G18G27G10G24G15
  22894908.294 7 120313555.135 7      2585.164    20087057.468 7  82253142.429 7
      -641.680  
  20699420.023 7 108776186.402 7       580.094    21010690.111 7  86035263.705 7
       274.831  
  20087057.468 7 105558199.451 7      -823.489    22894908.294 7  93750822.183 7
      2014.414  
  23521985.605 7 123608868.646 7       161.356    23521985.605 7  96318598.945 7
       125.732  
  22421474.939 7 117825646.062 7      1918.714    22421474.939 7  91812191.737 7
      1495.102  
  21010690.111 7 110411921.755 7       352.699    21566437.281 7  88310955.463 7
     -2154.165  
  21566437.281 7 113332392.844 7     -2764.512    20699420.023 7  84760664.729 7
       452.021  
 24 01 02 10 00 31.2000000  0  7G32G23G18G27G10G24G15
  22894859.089 7 120313296.561 7      2586.191    20087073.116 7  82253206.508 7
      -639.944  
  20699409.031 7 108776128.636 7       575.387    21010683.367 7  86035236.089 7
       277.459  
  20087073.116 7 105558281.685 7      -821.262    22894859.089 7  93750620.697 7
      2015.214  
  23521982.609 7 123608852.902 7       153.688    23521982.609 7  96318586.677 7
       119.757  
  22421438.497 7 117825454.559 7      1911.527    22421438.497 7  91812042.513 7
      1489.502  
  21010683.367 7 110411886.314 7       356.073    21566489.913 7  88311170.982 7
     -2156.095  
  21566489.913 7 113332669.427 7     -2766.989    20699409.031 7  84760619.716 7
       448.354  
 24 01 02 10 00 31.3000000  0  7G32G23G18G27G10G24G15
  22894809.871 7 120313037.920 7      2586.493    20087088.726 7  82253270.428 7
      -638.504  
  20699398.119 7 108776071.295 7       571.565    21010676.561 7  86035208.218 7
       279.929  
  20087088.726 7 105558363.716 7      -819.413    22894809.871 7  93750419.159 7
      2015.449  
  23521979.750 7 123608837.878 7       146.931    23521979.750 7  96318574.970 7
       114.491  
  22421402.183 7 117825263.726 7      1905.285    22421402.183 7  91811893.812 7
      1484.638  
  21010676.561 7 110411850.547 7       359.243    21566542.584 7  88311386.660 7
     -2157.346  
  21566542.584 7 113332946.213 7     -2768.595    20699398.119 7  84760575.035 7
       445.376  
 24 01 02 10 00 31.4000000  0  7G32G23G18G27G10G24G15
  22894760.653 7 120312779.275 7      2586.317    20087104.314 7  82253334.257 7
      -638.267  
  20699387.254 7 108776014.200 7       570.863    21010669.714 7  86035180.183 7
       280.465  
  20087104.314 7 105558445.629 7      -819.109    22894760.653 7  93750217.617 7
      2015.312  
  23521976.976 7 123608823.302 7       145.459    23521976.976 7  96318563.612 7
       113.345  
  22421365.946 7 117825073.303 7      1903.997    22421365.946 7  91811745.431 7
      1483.634  
  21010669.714 7 110411814.568 7       359.931    21566595.272 7  88311602.410 7
     -2157.460  
  21566595.272 7 113333223.093 7     -2768.741    20699387.254 7  84760530.545 7
       444.828  
 24 01 02 10 00 31.5000000  0  7G32G23G18G27G10G24G15
  22894711.440 7 120312520.659 7      2586.000    20087119.901 7  82253398.084 7
      -638.278  
  20699376.392 7 108775957.116 7       570.809    21010662.863 7  86035152.128 7
       280.626  
  20087119.901 7 105558527.541 7      -819.123    22894711.440 7  93750016.098 7
      2015.065  
  23521974.212 7 123608808.777 7       145.047    23521974.212 7  96318552.294 7
       113.023  
  22421329.717 7 117824882.917 7      1903.709    22421329.717 7  91811597.078 7
      1483.409  
  21010662.863 7 110411778.565 7       360.137    21566647.958 7  88311818.149 7
     -2157.312  
  21566647.958 7 113333499.957 7     -2768.551    20699376.392 7  84760486.065 7
       444.787  
 24 01 02 10 00 31.6000000  0  7G32G23G18G27G10G24G15
  22894662.233 7 120312262.075 7      2585.685    20087135.488 7  82253461.912 7
      -638.289  
  20699365.530 7 108775900.038 7       570.756    21010656.008 7  86035124.058 7
       280.785  
  20087135.488 7 105558609.454 7      -819.137    22894662.233 7  93749814.604 7
      2014.819  
  23521971.456 7 123608794.293 7       144.637    23521971.456 7  96318541.008 7
       112.704  
  22421293.494 7 117824692.561 7      1903.422    22421293.494 7  91811448.749 7
      1483.186  
  21010656.008 7 110411742.541 7       360.341    21566700.640 7  88312033.873 7
     -2157.166  
  21566700.640 7 113333776.803 7     -2768.362    20699365.530 7  84760441.588 7
       444.745  
 24 01 02 10 00 31.7000000  0  7G32G23G18G27G10G24G15
  22894613.032 7 120312003.522 7      2585.372    20087151.076 7  82253525.742 7
      -638.300  
  20699354.670 7 108775842.965 7       570.704    21010649.149 7  86035095.971 7
       280.943  
  20087151.076 7 105558691.368 7      -819.152    22894613.032 7  93749613.134 7
      2014.576  
  23521968.708 7 123608779.850 7       144.229    23521968.708 7  96318529.753 7
       112.387  
  22421257.276 7 117824502.233 7      1903.137    22421257.276 7  91811300.441 7
      1482.964  
  21010649.149 7 110411706.496 7       360.544    21566753.318 7  88312249.582 7
     -2157.020  
  21566753.318 7 113334053.630 7     -2768.176    20699354.670 7  84760397.116 7
       444.704  
 24 01 02 10 00 31.8000000  0  7G32G23G18G27G10G24G15
  22894563.837 7 120311745.001 7      2585.061    20087166.664 7  82253589.572 7
      -638.312  
  20699343.810 7 108775785.897 7       570.651    21010642.286 7  86035067.869 7
       281.099  
  20087166.664 7 105558773.284 7      -819.167    22894563.837 7  93749411.689 7
      2014.333  
  23521965.967 7 123608765.447 7       143.825    23521965.967 7  96318518.530 7
       112.071  
  22421221.063 7 117824311.933 7      1902.855    22421221.063 7  91811152.156 7
      1482.744  
  21010642.286 7 110411670.432 7       360.744    21566805.993 7  88312465.277 7
     -2156.875  
  21566805.993 7 113334330.438 7     -2767.990    20699343.810 7  84760352.647 7
       444.663  
 24 01 02 10 00 31.9000000  0  7G32G23G18G27G10G24G15
  22894514.648 7 120311486.510 7      2584.753    20087182.253 7  82253653.404 7
      -638.323  
  20699332.951 7 108775728.835 7       570.599    21010635.420 7  86035039.751 7
       281.254  
  20087182.253 7 105558855.202 7      -819.182    22894514.648 7  93749210.268 7
      2014.093  
  23521963.234 7 123608751.085 7       143.422    23521963.234 7  96318507.339 7
       111.758  
  22421184.855 7 117824121.662 7      1902.574    22421184.855 7  91811003.892 7
      1482.525  
  21010635.420 7 110411634.348 7       360.942    21566858.665 7  88312680.957 7
     -2156.732  
  21566858.665 7 113334607.228 7     -2767.806    20699332.951 7  84760308.183 7
       444.623  
 24 01 02 10 00 32.0000000  0  7G32G23G18G27G10G24G15
  22894465.465 7 120311228.050 7      2584.446    20087197.841 7  82253717.237 7
      -638.335  
  20699322.094 7 108775671.778 7       570.547    21010628.549 7  86035011.618 7
       281.407  
  20087197.841 7 105558937.121 7      -819.197    22894465.465 7  93749008.870 7
      2013.854  
  23521960.509 7 123608736.763 7       143.022    23521960.509 7  96318496.179 7
       111.446  
  22421148.653 7 117823931.418 7      1902.296    22421148.653 7  91810855.651 7
      1482.308  
  21010628.549 7 110411598.243 7       361.139    21566911.332 7  88312896.623 7
     -2156.590  
  21566911.332 7 113334884.000 7     -2767.624    20699322.094 7  84760263.723 7
       444.582  
 24 01 02 10 00 32.1000000  0  7G32G23G18G27G10G24G15
  22894416.287 7 120310969.621 7      2584.141    20087213.430 7  82253781.071 7
      -638.347  
  20699311.237 7 108775614.725 7       570.495    21010621.675 7  86034983.470 7
       281.559  
  20087213.430 7 105559019.041 7      -819.213    22894416.287 7  93748807.497 7
      2013.616  
  23521957.791 7 123608722.480 7       142.625    23521957.791 7  96318485.050 7
       111.136  
  22421112.456 7 117823741.203 7      1902.019    22421112.456 7  91810707.431 7
      1482.093  
  21010621.675 7 110411562.120 7       361.333    21566963.997 7  88313112.275 7
     -2156.449  
  21566963.997 7 113335160.753 7     -2767.443    20699311.237 7  84760219.267 7
       444.542  
 24 01 02 10 00 32.2000000  0  7G32G23G18G27G10G24G15
  22894367.115 7 120310711.222 7      2583.838    20087229.020 7  82253844.906 7
      -638.360  
  20699300.381 7 108775557.678 7       570.444    21010614.797 7  86034955.307 7
       281.709  
  20087229.020 7 105559100.963 7      -819.229    22894367.115 7  93748606.147 7
      2013.380  
  23521955.080 7 123608708.237 7       142.230    23521955.080 7  96318473.951 7
       110.828  
  22421076.265 7 117823551.014 7      1901.745    22421076.265 7  91810559.232 7
      1481.879  
  21010614.797 7 110411525.977 7       361.526    21567016.658 7  88313327.913 7
     -2156.309  
  21567016.658 7 113335437.488 7     -2767.263    20699300.381 7  84760174.814 7
       444.502  
 24 01 02 10 00 32.3000000  0  7G32G23G18G27G10G24G15
  22894317.949 7 120310452.853 7      2583.537    20087244.609 7  82253908.743 7
      -638.373  
  20699289.527 7 108775500.637 7       570.393    21010607.916 7  86034927.128 7
       281.857  
  20087244.609 7 105559182.887 7      -819.245    22894317.949 7  93748404.821 7
      2013.146  
  23521952.378 7 123608694.034 7       141.837    23521952.378 7  96318462.884 7
       110.522  
  22421040.078 7 117823360.854 7      1901.472    22421040.078 7  91810411.055 7
      1481.667  
  21010607.916 7 110411489.815 7       361.717    21567069.315 7  88313543.537 7
     -2156.170  
  21567069.315 7 113335714.206 7     -2767.085    20699289.527 7  84760130.366 7
       444.462  
 24 01 02 10 00 32.4000000  0  7G32G23G18G27G10G24G15
  22894268.789 7 120310194.514 7      2583.238    20087260.199 7  82253972.581 7
      -638.386  
  20699278.673 7 108775443.600 7       570.342    21010601.031 7  86034898.935 7
       282.004  
  20087260.199 7 105559264.812 7      -819.262    22894268.789 7  93748203.518 7
      2012.913  
  23521949.682 7 123608679.870 7       141.447    23521949.682 7  96318451.847 7
       110.218  
  22421003.897 7 117823170.720 7      1901.201    22421003.897 7  91810262.899 7
      1481.456  
  21010601.031 7 110411453.634 7       361.906    21567121.970 7  88313759.147 7
     -2156.033  
  21567121.970 7 113335990.905 7     -2766.908    20699278.673 7  84760085.922 7
       444.422  
 24 01 02 10 00 32.5000000  0  7G32G23G18G27G10G24G15
  22894219.635 7 120309936.205 7      2582.942    20087275.789 7  82254036.420 7
      -638.399  
  20699267.820 7 108775386.568 7       570.291    21010594.142 7  86034870.728 7
       282.150  
  20087275.789 7 105559346.739 7      -819.279    22894219.635 7  93748002.238 7
      2012.682  
  23521946.994 7 123608665.745 7       141.059    23521946.994 7  96318440.840 7
       109.916  
  22420967.721 7 117822980.613 7      1900.933    22420967.721 7  91810114.764 7
      1481.246  
  21010594.142 7 110411417.434 7       362.093    21567174.620 7  88313974.743 7
     -2155.896  
  21567174.620 7 113336267.587 7     -2766.733    20699267.820 7  84760041.482 7
       444.383  
 24 01 02 10 00 32.6000000  0  7G32G23G18G27G10G24G15
  22894170.486 7 120309677.926 7      2582.646    20087291.380 7  82254100.261 7
      -638.412  
  20699256.968 7 108775329.542 7       570.241    21010587.250 7  86034842.505 7
       282.295  
  20087291.380 7 105559428.668 7      -819.296    22894170.486 7  93747800.981 7
      2012.452  
  23521944.314 7 123608651.658 7       140.673    23521944.314 7  96318429.864 7
       109.615  
  22420931.550 7 117822790.533 7      1900.666    22420931.550 7  91809966.649 7
      1481.038  
  21010587.250 7 110411381.215 7       362.278    21567227.268 7  88314190.326 7
     -2155.761  
  21567227.268 7 113336544.252 7     -2766.559    20699256.968 7  84759997.045 7
       444.343  
 24 01 02 10 00 32.7000000  0  7G32G23G18G27G10G24G15
  22894121.342 7 120309419.676 7      2582.353    20087306.971 7  82254164.103 7
      -638.426  
  20699246.117 7 108775272.520 7       570.191    21010580.354 7  86034814.269 7
       282.437  
  20087306.971 7 105559510.598 7      -819.313    22894121.342 7  93747599.748 7
      2012.223  
  23521941.640 7 123608637.610 7       140.290    23521941.640 7  96318418.917 7
       109.317  
  22420895.384 7 117822600.480 7      1900.401    22420895.384 7  91809818.556 7
      1480.832  
  21010580.354 7 110411344.978 7       362.461    21567279.912 7  88314405.896 7
     -2155.626  
  21567279.912 7 113336820.899 7     -2766.387    20699246.117 7  84759952.613 7
       444.304  
 24 01 02 10 00 32.8000000  0  7G32G23G18G27G10G24G15
  22894072.205 7 120309161.455 7      2582.062    20087322.562 7  82254227.946 7
      -638.440  
  20699235.268 7 108775215.503 7       570.141    21010573.455 7  86034786.018 7
       282.579  
  20087322.562 7 105559592.531 7      -819.331    22894072.205 7  93747398.537 7
      2011.996  
  23521938.974 7 123608623.600 7       139.909    23521938.974 7  96318408.000 7
       109.020  
  22420859.223 7 117822410.453 7      1900.138    22420859.223 7  91809670.483 7
      1480.627  
  21010573.455 7 110411308.723 7       362.643    21567332.553 7  88314621.451 7
     -2155.493  
  21567332.553 7 113337097.529 7     -2766.216    20699235.268 7  84759908.185 7
       444.265  
 24 01 02 10 00 32.9000000  0  7G32G23G18G27G10G24G15
  22894023.072 7 120308903.264 7      2581.773    20087338.153 7  82254291.791 7
      -638.454  
  20699224.419 7 108775158.492 7       570.091    21010566.553 7  86034757.753 7
       282.719  
  20087338.153 7 105559674.465 7      -819.349    22894023.072 7  93747197.348 7
      2011.771  
  23521936.316 7 123608609.628 7       139.530    23521936.316 7  96318397.113 7
       108.725  
  22420823.067 7 117822220.452 7      1899.876    22420823.067 7  91809522.430 7
      1480.423  
  21010566.553 7 110411272.450 7       362.823    21567385.191 7  88314836.994 7
     -2155.361  
  21567385.191 7 113337374.142 7     -2766.046    20699224.419 7  84759863.760 7
       444.227  
 24 01 02 10 00 33.0000000  0  7G32G23G18G27G10G24G15
  22893973.946 7 120308645.101 7      2581.485    20087353.745 7  82254355.637 7
      -638.469  
  20699213.571 7 108775101.485 7       570.041    21010559.647 7  86034729.474 7
       282.858  
  20087353.745 7 105559756.401 7      -819.368    22893973.946 7  93746996.182 7
      2011.547  
  23521933.664 7 123608595.694 7       139.154    23521933.664 7  96318386.255 7
       108.431  
  22420786.916 7 117822030.478 7      1899.617    22420786.916 7  91809374.398 7
      1480.221  
  21010559.647 7 110411236.158 7       363.001    21567437.825 7  88315052.524 7
     -2155.229  
  21567437.825 7 113337650.739 7     -2765.878    20699213.571 7  84759819.339 7
       444.188  
 24 01 02 10 00 33.1000000  0  7G32G23G18G27G10G24G15
  22893924.824 7 120308386.966 7      2581.200    20087369.337 7  82254419.484 7
      -638.483  
  20699202.724 7 108775044.484 7       569.992    21010552.737 7  86034701.181 7
       282.995  
  20087369.337 7 105559838.338 7      -819.387    22893924.824 7  93746795.039 7
      2011.324  
  23521931.020 7 123608581.797 7       138.780    23521931.020 7  96318375.427 7
       108.140  
  22420750.770 7 117821840.529 7      1899.360    22420750.770 7  91809226.386 7
      1480.020  
  21010552.737 7 110411199.850 7       363.177    21567490.457 7  88315268.040 7
     -2155.099  
  21567490.457 7 113337927.318 7     -2765.711    20699202.724 7  84759774.922 7
       444.150  
 24 01 02 10 00 33.2000000  0  7G32G23G18G27G10G24G15
  22893875.708 7 120308128.861 7      2580.916    20087384.930 7  82254483.333 7
      -638.498  
  20699191.877 7 108774987.487 7       569.943    21010545.825 7  86034672.875 7
       283.131  
  20087384.930 7 105559920.278 7      -819.406    22893875.708 7  93746593.917 7
      2011.103  
  23521928.382 7 123608567.938 7       138.408    23521928.382 7  96318364.627 7
       107.850  
  22420714.629 7 117821650.606 7      1899.104    22420714.629 7  91809078.394 7
      1479.821  
  21010545.825 7 110411163.523 7       363.351    21567543.085 7  88315483.543 7
     -2154.970  
  21567543.085 7 113338203.881 7     -2765.545    20699191.877 7  84759730.509 7
       444.112  
 24 01 02 10 00 33.3000000  0  7G32G23G18G27G10G24G15
  22893826.598 7 120307870.783 7      2580.634    20087400.523 7  82254547.184 7
      -638.513  
  20699181.032 7 108774930.495 7       569.894    21010538.909 7  86034644.555 7
       283.265  
  20087400.523 7 105560002.220 7      -819.425    22893826.598 7  93746392.818 7
      2010.883  
  23521925.752 7 123608554.116 7       138.038    23521925.752 7  96318353.857 7
       107.562  
  22420678.493 7 117821460.708 7      1898.850    22420678.493 7  91808930.422 7
      1479.623  
  21010538.909 7 110411127.179 7       363.524    21567595.710 7  88315699.034 7
     -2154.842  
  21567595.710 7 113338480.427 7     -2765.381    20699181.032 7  84759686.100 7
       444.074  
 24 01 02 10 00 33.4000000  0  7G32G23G18G27G10G24G15
  22893777.493 7 120307612.734 7      2580.354    20087416.116 7  82254611.036 7
      -638.528  
  20699170.188 7 108774873.508 7       569.846    21010531.990 7  86034616.222 7
       283.398  
  20087416.116 7 105560084.163 7      -819.445    22893777.493 7  93746191.741 7
      2010.665  
  23521923.129 7 123608540.331 7       137.671    23521923.129 7  96318343.115 7
       107.276  
  22420642.361 7 117821270.836 7      1898.598    22420642.361 7  91808782.469 7
      1479.427  
  21010531.990 7 110411090.818 7       363.694    21567648.332 7  88315914.512 7
     -2154.715  
  21567648.332 7 113338756.957 7     -2765.218    20699170.188 7  84759641.694 7
       444.036  
 24 01 02 10 00 33.5000000  0  7G32G23G18G27G10G24G15
  22893728.393 7 120307354.712 7      2580.075    20087431.710 7  82254674.890 7
      -638.544  
  20699159.345 7 108774816.526 7       569.798    21010525.067 7  86034587.876 7
       283.530  
  20087431.710 7 105560166.108 7      -819.465    22893728.393 7  93745990.685 7
      2010.448  
  23521920.512 7 123608526.582 7       137.305    23521920.512 7  96318332.401 7
       106.991  
  22420606.234 7 117821080.988 7      1898.348    22420606.234 7  91808634.537 7
      1479.232  
  21010525.067 7 110411054.441 7       363.864    21567700.951 7  88316129.977 7
     -2154.589  
  21567700.951 7 113339033.471 7     -2765.056    20699159.345 7  84759597.293 7
       443.998  
 24 01 02 10 00 33.6000000  0  7G32G23G18G27G10G24G15
  22893679.298 7 120307096.719 7      2579.799    20087447.304 7  82254738.745 7
      -638.560  
  20699148.502 7 108774759.548 7       569.750    21010518.141 7  86034559.516 7
       283.661  
  20087447.304 7 105560248.056 7      -819.485    22893679.298 7  93745789.651 7
      2010.233  
  23521917.903 7 123608512.869 7       136.942    23521917.903 7  96318321.716 7
       106.708  
  22420570.112 7 117820891.166 7      1898.099    22420570.112 7  91808486.623 7
      1479.038  
  21010518.141 7 110411018.046 7       364.031    21567753.566 7  88316345.430 7
     -2154.464  
  21567753.566 7 113339309.968 7     -2764.895    20699148.502 7  84759552.895 7
       443.961  
 24 01 02 10 00 33.7000000  0  7G32G23G18G27G10G24G15
  22893630.209 7 120306838.753 7      2579.524    20087462.899 7  82254802.602 7
      -638.576  
  20699137.661 7 108774702.576 7       569.702    21010511.212 7  86034531.144 7
       283.790  
  20087462.899 7 105560330.005 7      -819.505    22893630.209 7  93745588.638 7
      2010.019  
  23521915.301 7 123608499.193 7       136.581    23521915.301 7  96318311.060 7
       106.427  
  22420533.995 7 117820701.369 7      1897.852    22420533.995 7  91808338.729 7
      1478.846  
  21010511.212 7 110410981.634 7       364.197    21567806.179 7  88316560.870 7
     -2154.340  
  21567806.179 7 113339586.450 7     -2764.736    20699137.661 7  84759508.501 7
       443.923  
 24 01 02 10 00 33.8000000  0  7G32G23G18G27G10G24G15
  22893581.125 7 120306580.814 7      2579.251    20087478.493 7  82254866.460 7
      -638.592  
  20699126.820 7 108774645.608 7       569.654    21010504.280 7  86034502.758 7
       283.917  
  20087478.493 7 105560411.957 7      -819.526    22893581.125 7  93745387.647 7
      2009.806  
  23521912.705 7 123608485.553 7       136.223    23521912.705 7  96318300.431 7
       106.147  
  22420497.883 7 117820511.596 7      1897.607    22420497.883 7  91808190.854 7
      1478.655  
  21010504.280 7 110410945.206 7       364.361    21567858.789 7  88316776.298 7
     -2154.217  
  21567858.789 7 113339862.916 7     -2764.578    20699126.820 7  84759464.110 7
       443.886  
 24 01 02 10 00 33.9000000  0  7G32G23G18G27G10G24G15
  22893532.046 7 120306322.902 7      2578.979    20087494.089 7  82254930.320 7
      -638.608  
  20699115.980 7 108774588.645 7       569.607    21010497.345 7  86034474.360 7
       284.044  
  20087494.089 7 105560493.911 7      -819.547    22893532.046 7  93745186.677 7
      2009.594  
  23521910.116 7 123608471.949 7       135.866    23521910.116 7  96318289.830 7
       105.870  
  22420461.775 7 117820321.847 7      1897.364    22420461.775 7  91808042.998 7
      1478.465  
  21010497.345 7 110410908.762 7       364.523    21567911.395 7  88316991.713 7
     -2154.095  
  21567911.395 7 113340139.366 7     -2764.422    20699115.980 7  84759419.723 7
       443.849  
 24 01 02 10 00 34.0000000  0  7G32G23G18G27G10G24G15
  22893482.972 7 120306065.018 7      2578.710    20087509.684 7  82254994.182 7
      -638.625  
  20699105.142 7 108774531.687 7       569.560    21010490.407 7  86034445.950 7
       284.169  
  20087509.684 7 105560575.867 7      -819.569    22893482.972 7  93744985.728 7
      2009.384  
  23521907.534 7 123608458.380 7       135.511    23521907.534 7  96318279.257 7
       105.593  
  22420425.671 7 117820132.123 7      1897.123    22420425.671 7  91807895.161 7
      1478.277  
  21010490.407 7 110410872.302 7       364.684    21567963.999 7  88317207.117 7
     -2153.974  
  21567963.999 7 113340415.800 7     -2764.267    20699105.142 7  84759375.340 7
       443.813  
 24 01 02 10 00 34.1000000  0  7G32G23G18G27G10G24G15
  22893433.904 7 120305807.160 7      2578.442    20087525.280 7  82255058.045 7
      -638.642  
  20699094.304 7 108774474.733 7       569.513    21010483.466 7  86034417.526 7
       284.293  
  20087525.280 7 105560657.824 7      -819.590    22893433.904 7  93744784.800 7
      2009.176  
  23521904.959 7 123608444.846 7       135.159    23521904.959 7  96318268.711 7
       105.319  
  22420389.572 7 117819942.423 7      1896.883    22420389.572 7  91807747.342 7
      1478.090  
  21010483.466 7 110410835.826 7       364.843    21568016.600 7  88317422.508 7
     -2153.854  
  21568016.600 7 113340692.219 7     -2764.113    20699094.304 7  84759330.961 7
       443.776  
 24 01 02 10 00 34.2000000  0  7G32G23G18G27G10G24G15
  22893384.840 7 120305549.330 7      2578.176    20087540.877 7  82255121.910 7
      -638.659  
  20699083.467 7 108774417.784 7       569.466    21010476.522 7  86034389.091 7
       284.416  
  20087540.877 7 105560739.785 7      -819.612    22893384.840 7  93744583.893 7
      2008.968  
  23521902.390 7 123608431.348 7       134.809    23521902.390 7  96318258.193 7
       105.046  
  22420353.478 7 117819752.746 7      1896.645    22420353.478 7  91807599.542 7
      1477.905  
  21010476.522 7 110410799.333 7       365.000    21568069.198 7  88317637.888 7
     -2153.735  
  21568069.198 7 113340968.623 7     -2763.960    20699083.467 7  84759286.585 7
       443.740  
 24 01 02 10 00 34.3000000  0  7G32G23G18G27G10G24G15
  22893335.781 7 120305291.525 7      2577.912    20087556.474 7  82255185.777 7
      -638.676  
  20699072.631 7 108774360.840 7       569.420    21010469.575 7  86034360.643 7
       284.537  
  20087556.474 7 105560821.747 7      -819.634    22893335.781 7  93744383.007 7
      2008.762  
  23521899.828 7 123608417.884 7       134.461    23521899.828 7  96318247.702 7
       104.774  
  22420317.389 7 117819563.094 7      1896.408    22420317.389 7  91807451.761 7
      1477.721  
  21010469.575 7 110410762.826 7       365.156    21568121.793 7  88317853.255 7
     -2153.617  
  21568121.793 7 113341245.011 7     -2763.808    20699072.631 7  84759242.213 7
       443.704  
 24 01 02 10 00 34.4000000  0  7G32G23G18G27G10G24G15
  22893286.728 7 120305033.747 7      2577.649    20087572.071 7  82255249.645 7
      -638.694  
  20699061.795 7 108774303.900 7       569.373    21010462.624 7  86034332.184 7
       284.657  
  20087572.071 7 105560903.711 7      -819.657    22893286.728 7  93744182.141 7
      2008.557  
  23521897.273 7 123608404.456 7       134.114    23521897.273 7  96318237.238 7
       104.505  
  22420281.303 7 117819373.464 7      1896.173    22420281.303 7  91807303.998 7
      1477.538  
  21010462.624 7 110410726.302 7       365.310    21568174.385 7  88318068.611 7
     -2153.500  
  21568174.385 7 113341521.384 7     -2763.658    20699061.795 7  84759197.844 7
       443.667  
 24 01 02 10 00 34.5000000  0  7G32G23G18G27G10G24G15
  22893237.679 7 120304775.995 7      2577.388    20087587.669 7  82255313.516 7
      -638.711  
  20699050.961 7 108774246.965 7       569.327    21010455.671 7  86034303.712 7
       284.776  
  20087587.669 7 105560985.678 7      -819.679    22893237.679 7  93743981.295 7
      2008.354  
  23521894.724 7 123608391.061 7       133.770    23521894.724 7  96318226.801 7
       104.237  
  22420245.223 7 117819183.859 7      1895.940    22420245.223 7  91807156.254 7
      1477.356  
  21010455.671 7 110410689.764 7       365.462    21568226.974 7  88318283.955 7
     -2153.384  
  21568226.974 7 113341797.743 7     -2763.509    20699050.961 7  84759153.479 7
       443.632  
 24 01 02 10 00 34.6000000  0  7G32G23G18G27G10G24G15
  22893188.636 7 120304518.270 7      2577.128    20087603.267 7  82255377.388 7
      -638.729  
  20699040.127 7 108774190.035 7       569.281    21010448.715 7  86034275.229 7
       284.893  
  20087603.267 7 105561067.647 7      -819.702    22893188.636 7  93743780.470 7
      2008.152  
  23521892.181 7 123608377.701 7       133.428    23521892.181 7  96318216.391 7
       103.970  
  22420209.146 7 117818994.276 7      1895.709    22420209.146 7  91807008.527 7
      1477.176  
  21010448.715 7 110410653.210 7       365.613    21568279.560 7  88318499.288 7
     -2153.268  
  21568279.560 7 113342074.086 7     -2763.361    20699040.127 7  84759109.118 7
       443.596  
 24 01 02 10 00 34.7000000  0  7G32G23G18G27G10G24G15
  22893139.597 7 120304260.570 7      2576.871    20087618.866 7  82255441.261 7
      -638.747  
  20699029.295 7 108774133.109 7       569.236    21010441.757 7  86034246.733 7
       285.010  
  20087618.866 7 105561149.619 7      -819.726    22893139.597 7  93743579.665 7
      2007.951  
  23521889.646 7 123608364.376 7       133.088    23521889.646 7  96318206.007 7
       103.705  
  22420173.074 7 117818804.717 7      1895.479    22420173.074 7  91806860.818 7
      1476.997  
  21010441.757 7 110410616.641 7       365.762    21568332.144 7  88318714.609 7
     -2153.154  
  21568332.144 7 113342350.415 7     -2763.214    20699029.295 7  84759064.760 7
       443.560  
 24 01 02 10 00 34.8000000  0  7G32G23G18G27G10G24G15
  22893090.563 7 120304002.895 7      2576.614    20087634.465 7  82255505.137 7
      -638.766  
  20699018.463 7 108774076.188 7       569.190    21010434.795 7  86034218.227 7
       285.125  
  20087634.465 7 105561231.593 7      -819.749    22893090.563 7  93743378.880 7
      2007.751  
  23521887.116 7 123608351.084 7       132.750    23521887.116 7  96318195.650 7
       103.442  
  22420137.007 7 117818615.181 7      1895.251    22420137.007 7  91806713.128 7
      1476.819  
  21010434.795 7 110410580.058 7       365.910    21568384.725 7  88318929.919 7
     -2153.041  
  21568384.725 7 113342626.729 7     -2763.069    20699018.463 7  84759020.406 7
       443.525  
 24 01 02 10 00 34.9000000  0  7G32G23G18G27G10G24G15
  22893041.534 7 120303745.247 7      2576.360    20087650.064 7  82255569.014 7
      -638.784  
  20699007.632 7 108774019.271 7       569.145    21010427.831 7  86034189.709 7
       285.239  
  20087650.064 7 105561313.569 7      -819.773    22893041.534 7  93743178.114 7
      2007.553  
  23521884.593 7 123608337.826 7       132.414    23521884.593 7  96318185.319 7
       103.180  
  22420100.943 7 117818425.667 7      1895.024    22420100.943 7  91806565.455 7
      1476.642  
  21010427.831 7 110410543.459 7       366.056    21568437.303 7  88319145.217 7
     -2152.928  
  21568437.303 7 113342903.029 7     -2762.925    20699007.632 7  84758976.055 7
       443.490  
 24 01 02 10 00 35.0000000  0  7G32G23G18G27G10G24G15
  22892992.510 7 120303487.623 7      2576.107    20087665.664 7  82255632.894 7
      -638.803  
  20698996.802 7 108773962.359 7       569.100    21010420.863 7  86034161.179 7
       285.351  
  20087665.664 7 105561395.547 7      -819.797    22892992.510 7  93742977.369 7
      2007.356  
  23521882.077 7 123608324.601 7       132.080    23521882.077 7  96318175.014 7
       102.919  
  22420064.884 7 117818236.176 7      1894.799    22420064.884 7  91806417.799 7
      1476.467  
  21010420.863 7 110410506.846 7       366.201    21568489.878 7  88319360.504 7
     -2152.817  
  21568489.878 7 113343179.314 7     -2762.782    20698996.802 7  84758931.708 7
       443.455  
 24 01 02 10 00 35.1000000  0  7G32G23G18G27G10G24G15
  22892943.491 7 120303230.025 7      2575.856    20087681.265 7  82255696.775 7
      -638.822  
  20698985.973 7 108773905.451 7       569.055    21010413.893 7  86034132.638 7
       285.463  
  20087681.265 7 105561477.528 7      -819.821    22892943.491 7  93742776.643 7
      2007.160  
  23521879.567 7 123608311.410 7       131.748    23521879.567 7  96318164.735 7
       102.661  
  22420028.830 7 117818046.707 7      1894.576    22420028.830 7  91806270.161 7
      1476.293  
  21010413.893 7 110410470.219 7       366.344    21568542.451 7  88319575.780 7
     -2152.706  
  21568542.451 7 113343455.585 7     -2762.640    20698985.973 7  84758887.364 7
       443.420  
 24 01 02 10 00 35.2000000  0  7G32G23G18G27G10G24G15
  22892894.476 7 120302972.452 7      2575.606    20087696.866 7  82255760.658 7
      -638.841  
  20698975.145 7 108773848.547 7       569.011    21010406.921 7  86034104.087 7
       285.573  
  20087696.866 7 105561559.511 7      -819.846    22892894.476 7  93742575.937 7
      2006.966  
  23521877.063 7 123608298.251 7       131.418    23521877.063 7  96318154.482 7
       102.403  
  22419992.779 7 117817857.260 7      1894.354    22419992.779 7  91806122.541 7
      1476.120  
  21010406.921 7 110410433.578 7       366.485    21568595.021 7  88319791.046 7
     -2152.596  
  21568595.021 7 113343731.842 7     -2762.499    20698975.145 7  84758843.024 7
       443.385  
 24 01 02 10 00 35.3000000  0  7G32G23G18G27G10G24G15
  22892845.467 7 120302714.904 7      2575.358    20087712.467 7  82255824.543 7
      -638.860  
  20698964.317 7 108773791.649 7       568.966    21010399.945 7  86034075.524 7
       285.682  
  20087712.467 7 105561641.497 7      -819.871    22892845.467 7  93742375.250 7
      2006.772  
  23521874.565 7 123608285.126 7       131.089    23521874.565 7  96318144.254 7
       102.148  
  22419956.733 7 117817667.836 7      1894.134    22419956.733 7  91805974.937 7
      1475.949  
  21010399.945 7 110410396.922 7       366.625    21568647.588 7  88320006.300 7
     -2152.488  
  21568647.588 7 113344008.085 7     -2762.359    20698964.317 7  84758798.687 7
       443.350  
 24 01 02 10 00 35.4000000  0  7G32G23G18G27G10G24G15
  22892796.462 7 120302457.381 7      2575.111    20087728.069 7  82255888.430 7
      -638.880  
  20698953.490 7 108773734.754 7       568.922    21010392.967 7  86034046.950 7
       285.790  
  20087728.069 7 105561723.485 7      -819.896    22892796.462 7  93742174.582 7
      2006.580  
  23521872.073 7 123608272.033 7       130.763    23521872.073 7  96318134.052 7
       101.893  
  22419920.691 7 117817478.433 7      1893.916    22419920.691 7  91805827.351 7
      1475.778  
  21010392.967 7 110410360.253 7       366.764    21568700.153 7  88320221.543 7
     -2152.380  
  21568700.153 7 113344284.314 7     -2762.221    20698953.490 7  84758754.354 7
       443.316  
 24 01 02 10 00 35.5000000  0  7G32G23G18G27G10G24G15
  22892747.461 7 120302199.882 7      2574.866    20087743.671 7  82255952.319 7
      -638.899  
  20698942.665 7 108773677.864 7       568.878    21010385.987 7  86034018.366 7
       285.896  
  20087743.671 7 105561805.476 7      -819.921    22892747.461 7  93741973.934 7
      2006.389  
  23521869.588 7 123608258.973 7       130.439    23521869.588 7  96318123.875 7
       101.640  
  22419884.653 7 117817289.053 7      1893.698    22419884.653 7  91805679.781 7
      1475.609  
  21010385.987 7 110410323.570 7       366.900    21568752.715 7  88320436.776 7
     -2152.273  
  21568752.715 7 113344560.529 7     -2762.083    20698942.665 7  84758710.024 7
       443.282  
 24 01 02 10 00 35.6000000  0  7G32G23G18G27G10G24G15
  22892698.465 7 120301942.407 7      2574.623    20087759.274 7  82256016.210 7
      -638.919  
  20698931.840 7 108773620.979 7       568.834    21010379.004 7  86033989.771 7
       286.002  
  20087759.274 7 105561887.470 7      -819.946    22892698.465 7  93741773.304 7
      2006.200  
  23521867.109 7 123608245.946 7       130.116    23521867.109 7  96318113.724 7
       101.389  
  22419848.619 7 117817099.694 7      1893.483    22419848.619 7  91805532.229 7
      1475.441  
  21010379.004 7 110410286.873 7       367.036    21568805.274 7  88320651.998 7
     -2152.167  
  21568805.274 7 113344836.730 7     -2761.947    20698931.840 7  84758665.698 7
       443.247  
 24 01 02 10 00 35.7000000  0  7G32G23G18G27G10G24G15
  22892649.474 7 120301684.957 7      2574.381    20087774.877 7  82256080.103 7
      -638.939  
  20698921.015 7 108773564.097 7       568.791    21010372.018 7  86033961.166 7
       286.106  
  20087774.877 7 105561969.465 7      -819.972    22892649.474 7  93741572.694 7
      2006.011  
  23521864.636 7 123608232.950 7       129.795    23521864.636 7  96318103.597 7
       101.139  
  22419812.589 7 117816910.356 7      1893.269    22419812.589 7  91805384.693 7
      1475.274  
  21010372.018 7 110410250.162 7       367.170    21568857.831 7  88320867.209 7
     -2152.061  
  21568857.831 7 113345112.918 7     -2761.812    20698921.015 7  84758621.375 7
       443.213  
 24 01 02 10 00 35.8000000  0  7G32G23G18G27G10G24G15
  22892600.488 7 120301427.531 7      2574.141    20087790.481 7  82256143.998 7
      -638.960  
  20698910.192 7 108773507.221 7       568.747    21010365.030 7  86033932.550 7
       286.210  
  20087790.481 7 105562051.464 7      -819.998    22892600.488 7  93741372.102 7
      2005.824  
  23521862.169 7 123608219.986 7       129.477    23521862.169 7  96318093.496 7
       100.891  
  22419776.564 7 117816721.040 7      1893.056    22419776.564 7  91805237.174 7
      1475.109  
  21010365.030 7 110410213.439 7       367.302    21568910.385 7  88321082.410 7
     -2151.957  
  21568910.385 7 113345389.093 7     -2761.678    20698910.192 7  84758577.055 7
       443.180  
 24 01 02 10 00 35.9000000  0  7G32G23G18G27G10G24G15
  22892551.506 7 120301170.129 7      2573.902    20087806.086 7  82256207.895 7
      -638.980  
  20698899.370 7 108773450.348 7       568.704    21010358.039 7  86033903.924 7
       286.312  
  20087806.086 7 105562133.465 7      -820.024    22892551.506 7  93741171.529 7
      2005.638  
  23521859.708 7 123608207.055 7       129.160    23521859.708 7  96318083.419 7
       100.644  
  22419740.542 7 117816531.745 7      1892.845    22419740.542 7  91805089.671 7
      1474.944  
  21010358.039 7 110410176.702 7       367.433    21568962.937 7  88321297.601 7
     -2151.854  
  21568962.937 7 113345665.254 7     -2761.545    20698899.370 7  84758532.739 7
       443.146  
 24 01 02 10 00 36.0000000  0  7G32G23G18G27G10G24G15
  22892502.528 7 120300912.751 7      2573.664    20087821.690 7  82256271.794 7
      -639.001  
  20698888.548 7 108773393.480 7       568.661    21010351.046 7  86033875.287 7
       286.413  
  20087821.690 7 105562215.469 7      -820.051    22892502.528 7  93740970.974 7
      2005.453  
  23521857.254 7 123608194.154 7       128.844    23521857.254 7  96318073.367 7
       100.398  
  22419704.524 7 117816342.471 7      1892.636    22419704.524 7  91804942.185 7
      1474.781  
  21010351.046 7 110410139.952 7       367.563    21569015.486 7  88321512.781 7
     -2151.751  
  21569015.486 7 113345941.402 7     -2761.414    20698888.548 7  84758488.426 7
       443.112  
 24 01 02 10 00 36.1000000  0  7G32G23G18G27G10G24G15
  22892453.555 7 120300655.396 7      2573.428    20087837.296 7  82256335.695 7
      -639.022  
  20698877.727 7 108773336.616 7       568.618    21010344.050 7  86033846.641 7
       286.513  
  20087837.296 7 105562297.475 7      -820.078    22892453.555 7  93740770.438 7
      2005.269  
  23521854.805 7 123608181.286 7       128.531    23521854.805 7  96318063.340 7
       100.154  
  22419668.511 7 117816153.218 7      1892.428    22419668.511 7  91804794.715 7
      1474.619  
  21010344.050 7 110410103.190 7       367.691    21569068.033 7  88321727.951 7
     -2151.649  
  21569068.033 7 113346217.537 7     -2761.283    20698877.727 7  84758444.116 7
       443.079  
 24 01 02 10 00 36.2000000  0  7G32G23G18G27G10G24G15
  22892404.587 7 120300398.065 7      2573.194    20087852.901 7  82256399.598 7
      -639.043  
  20698866.907 7 108773279.756 7       568.575    21010337.052 7  86033817.985 7
       286.611  
  20087852.901 7 105562379.485 7      -820.105    22892404.587 7  93740569.921 7
      2005.086  
  23521852.362 7 123608168.448 7       128.220    23521852.362 7  96318053.336 7
        99.911  
  22419632.501 7 117815963.985 7      1892.221    22419632.501 7  91804647.261 7
      1474.458  
  21010337.052 7 110410066.414 7       367.818    21569120.577 7  88321943.111 7
     -2151.548  
  21569120.577 7 113346493.659 7     -2761.153    20698866.907 7  84758399.810 7
       443.046  
 24 01 02 10 00 36.3000000  0  7G32G23G18G27G10G24G15
  22892355.623 7 120300140.757 7      2572.961    20087868.508 7  82256463.504 7
      -639.064  
  20698856.088 7 108773222.901 7       568.533    21010330.051 7  86033789.319 7
       286.709  
  20087868.508 7 105562461.496 7      -820.132    22892355.623 7  93740369.421 7
      2004.905  
  23521849.925 7 123608155.642 7       127.910    23521849.925 7  96318043.357 7
        99.670  
  22419596.495 7 117815774.773 7      1892.016    22419596.495 7  91804499.823 7
      1474.298  
  21010330.051 7 110410029.626 7       367.943    21569173.119 7  88322158.260 7
     -2151.448  
  21569173.119 7 113346769.767 7     -2761.025    20698856.088 7  84758355.507 7
       443.013  
 24 01 02 10 00 36.4000000  0  7G32G23G18G27G10G24G15
  22892306.663 7 120299883.472 7      2572.730    20087884.115 7  82256527.411 7
      -639.085  
  20698845.269 7 108773166.050 7       568.491    21010323.048 7  86033760.643 7
       286.806  
  20087884.115 7 105562543.511 7      -820.159    22892306.663 7  93740168.940 7
      2004.724  
  23521847.494 7 123608142.866 7       127.602    23521847.494 7  96318033.402 7
        99.430  
  22419560.493 7 117815585.582 7      1891.813    22419560.493 7  91804352.401 7
      1474.140  
  21010323.048 7 110409992.825 7       368.067    21569225.658 7  88322373.400 7
     -2151.349  
  21569225.658 7 113347045.864 7     -2760.897    20698845.269 7  84758311.207 7
       442.980  
 24 01 02 10 00 36.5000000  0  7G32G23G18G27G10G24G15
  22892257.708 7 120299626.211 7      2572.500    20087899.722 7  82256591.321 7
      -639.107  
  20698834.452 7 108773109.203 7       568.449    21010316.043 7  86033731.958 7
       286.901  
  20087899.722 7 105562625.528 7      -820.187    22892257.708 7  93739968.476 7
      2004.545  
  23521845.069 7 123608130.121 7       127.296    23521845.069 7  96318023.471 7
        99.192  
  22419524.495 7 117815396.411 7      1891.610    22419524.495 7  91804204.995 7
      1473.982  
  21010316.043 7 110409956.013 7       368.190    21569278.195 7  88322588.530 7
     -2151.250  
  21569278.195 7 113347321.947 7     -2760.771    20698834.452 7  84758266.911 7
       442.947  
 24 01 02 10 00 36.6000000  0  7G32G23G18G27G10G24G15
  22892208.757 7 120299368.972 7      2572.271    20087915.330 7  82256655.232 7
      -639.129  
  20698823.635 7 108773052.360 7       568.407    21010309.036 7  86033703.263 7
       286.995  
  20087915.330 7 105562707.548 7      -820.215    22892208.757 7  93739768.031 7
      2004.367  
  23521842.649 7 123608117.407 7       126.991    23521842.649 7  96318013.564 7
        98.954  
  22419488.501 7 117815207.260 7      1891.410    22419488.501 7  91804057.605 7
      1473.826  
  21010309.036 7 110409919.188 7       368.311    21569330.730 7  88322803.650 7
     -2151.152  
  21569330.730 7 113347598.018 7     -2760.646    20698823.635 7  84758222.618 7
       442.914  
 24 01 02 10 00 36.7000000  0  7G32G23G18G27G10G24G15
  22892159.811 7 120299111.757 7      2572.044    20087930.938 7  82256719.146 7
      -639.150  
  20698812.819 7 108772995.521 7       568.365    21010302.026 7  86033674.559 7
       287.089  
  20087930.938 7 105562789.571 7      -820.243    22892159.811 7  93739567.603 7
      2004.190  
  23521840.235 7 123608104.723 7       126.689    23521840.235 7  96318003.680 7
        98.719  
  22419452.511 7 117815018.129 7      1891.210    22419452.511 7  91803910.230 7
      1473.670  
  21010302.026 7 110409882.350 7       368.431    21569383.262 7  88323018.761 7
     -2151.056  
  21569383.262 7 113347874.076 7     -2760.521    20698812.819 7  84758178.328 7
       442.882  
 24 01 02 10 00 36.8000000  0  7G32G23G18G27G10G24G15
  22892110.868 7 120298854.564 7      2571.818    20087946.547 7  82256783.063 7
      -639.173  
  20698802.004 7 108772938.687 7       568.324    21010295.014 7  86033645.845 7
       287.181  
  20087946.547 7 105562871.597 7      -820.271    22892110.868 7  93739367.192 7
      2004.014  
  23521837.827 7 123608092.069 7       126.388    23521837.827 7  96317993.820 7
        98.484  
  22419416.524 7 117814829.018 7      1891.012    22419416.524 7  91803762.871 7
      1473.516  
  21010295.014 7 110409845.501 7       368.549    21569435.792 7  88323233.861 7
     -2150.960  
  21569435.792 7 113348150.122 7     -2760.398    20698802.004 7  84758134.042 7
       442.850  
 24 01 02 10 00 36.9000000  0  7G32G23G18G27G10G24G15
  22892061.930 7 120298597.393 7      2571.594    20087962.157 7  82256846.981 7
      -639.195  
  20698791.189 7 108772881.856 7       568.282    21010287.999 7  86033617.123 7
       287.272  
  20087962.157 7 105562953.625 7      -820.300    22892061.930 7  93739166.800 7
      2003.839  
  23521835.425 7 123608079.445 7       126.089    23521835.425 7  96317983.983 7
        98.251  
  22419380.541 7 117814639.926 7      1890.816    22419380.541 7  91803615.527 7
      1473.363  
  21010287.999 7 110409808.641 7       368.666    21569488.319 7  88323448.953 7
     -2150.864  
  21569488.319 7 113348426.156 7     -2760.276    20698791.189 7  84758089.758 7
       442.817  
 24 01 02 10 00 37.0000000  0  7G32G23G18G27G10G24G15
  22892012.997 7 120298340.245 7      2571.371    20087977.767 7  82256910.902 7
      -639.217  
  20698780.376 7 108772825.030 7       568.241    21010280.983 7  86033588.391 7
       287.362  
  20087977.767 7 105563035.657 7      -820.329    22892012.997 7  93738966.425 7
      2003.666  
  23521833.029 7 123608066.851 7       125.791    23521833.029 7  96317974.170 7
        98.019  
  22419344.562 7 117814450.854 7      1890.621    22419344.562 7  91803468.198 7
      1473.211  
  21010280.983 7 110409771.768 7       368.782    21569540.844 7  88323664.034 7
     -2150.770  
  21569540.844 7 113348702.177 7     -2760.155    20698780.376 7  84758045.478 7
       442.785  
 24 01 02 10 00 37.1000000  0  7G32G23G18G27G10G24G15
  22891964.067 7 120298083.119 7      2571.149    20087993.378 7  82256974.824 7
      -639.240  
  20698769.563 7 108772768.208 7       568.200    21010273.964 7  86033559.650 7
       287.451  
  20087993.378 7 105563117.691 7      -820.358    22891964.067 7  93738766.067 7
      2003.493  
  23521830.638 7 123608054.287 7       125.496    23521830.638 7  96317964.379 7
        97.789  
  22419308.586 7 117814261.802 7      1890.427    22419308.586 7  91803320.885 7
      1473.060  
  21010273.964 7 110409734.884 7       368.896    21569593.367 7  88323879.107 7
     -2150.676  
  21569593.367 7 113348978.187 7     -2760.034    20698769.563 7  84758001.201 7
       442.753  
 24 01 02 10 00 37.2000000  0  7G32G23G18G27G10G24G15
  22891915.142 7 120297826.015 7      2570.929    20088008.989 7  82257038.749 7
      -639.263  
  20698758.751 7 108772711.390 7       568.159    21010266.943 7  86033530.901 7
       287.539  
  20088008.989 7 105563199.728 7      -820.387    22891915.142 7  93738565.726 7
      2003.322  
  23521828.252 7 123608041.752 7       125.201    23521828.252 7  96317954.612 7
        97.560  
  22419272.615 7 117814072.769 7      1890.235    22419272.615 7  91803173.586 7
      1472.910  
  21010266.943 7 110409697.989 7       369.009    21569645.888 7  88324094.170 7
     -2150.583  
  21569645.888 7 113349254.184 7     -2759.915    20698758.751 7  84757956.927 7
       442.721  
 24 01 02 10 00 37.3000000  0  7G32G23G18G27G10G24G15
  22891866.221 7 120297568.933 7      2570.711    20088024.600 7  82257102.677 7
      -639.286  
  20698747.939 7 108772654.576 7       568.119    21010259.920 7  86033502.142 7
       287.626  
  20088024.600 7 105563281.769 7      -820.417    22891866.221 7  93738365.402 7
      2003.151  
  23521825.873 7 123608029.247 7       124.909    23521825.873 7  96317944.868 7
        97.332  
  22419236.646 7 117813883.755 7      1890.044    22419236.646 7  91803026.303 7
      1472.761  
  21010259.920 7 110409661.083 7       369.121    21569698.406 7  88324309.223 7
     -2150.491  
  21569698.406 7 113349530.170 7     -2759.797    20698747.939 7  84757912.657 7
       442.690  
 24 01 02 10 00 37.4000000  0  7G32G23G18G27G10G24G15
  22891817.304 7 120297311.873 7      2570.493    20088040.213 7  82257166.607 7
      -639.309  
  20698737.129 7 108772597.767 7       568.078    21010252.895 7  86033473.375 7
       287.712  
  20088040.213 7 105563363.812 7      -820.446    22891817.304 7  93738165.096 7
      2002.982  
  23521823.499 7 123608016.770 7       124.618    23521823.499 7  96317935.146 7
        97.105  
  22419200.682 7 117813694.760 7      1889.854    22419200.682 7  91802879.034 7
      1472.613  
  21010252.895 7 110409624.165 7       369.231    21569750.922 7  88324524.268 7
     -2150.400  
  21569750.922 7 113349806.144 7     -2759.680    20698737.129 7  84757868.390 7
       442.658  
 24 01 02 10 00 37.5000000  0  7G32G23G18G27G10G24G15
  22891768.391 7 120297054.834 7      2570.277    20088055.826 7  82257230.539 7
      -639.332  
  20698726.319 7 108772540.961 7       568.038    21010245.867 7  86033444.600 7
       287.797  
  20088055.826 7 105563445.858 7      -820.476    22891768.391 7  93737964.806 7
      2002.813  
  23521821.130 7 123608004.323 7       124.329    23521821.130 7  96317925.446 7
        96.880  
  22419164.721 7 117813505.784 7      1889.666    22419164.721 7  91802731.780 7
      1472.467  
  21010245.867 7 110409587.236 7       369.340    21569803.436 7  88324739.303 7
     -2150.309  
  21569803.436 7 113350082.106 7     -2759.564    20698726.319 7  84757824.125 7
       442.627  
 24 01 02 10 00 37.6000000  0  7G32G23G18G27G10G24G15
  22891719.483 7 120296797.817 7      2570.062    20088071.439 7  82257294.473 7
      -639.356  
  20698715.510 7 108772484.159 7       567.998    21010238.838 7  86033415.816 7
       287.881  
  20088071.439 7 105563527.907 7      -820.506    22891719.483 7  93737764.533 7
      2002.646  
  23521818.767 7 123607991.904 7       124.042    23521818.767 7  96317915.770 7
        96.656  
  22419128.764 7 117813316.827 7      1889.479    22419128.764 7  91802584.541 7
      1472.321  
  21010238.838 7 110409550.297 7       369.448    21569855.948 7  88324954.330 7
     -2150.220  
  21569855.948 7 113350358.057 7     -2759.448    20698715.510 7  84757779.864 7
       442.596  
 24 01 02 10 00 37.7000000  0  7G32G23G18G27G10G24G15
  22891670.578 7 120296540.822 7      2569.849    20088087.053 7  82257358.410 7
      -639.379  
  20698704.702 7 108772427.361 7       567.958    21010231.807 7  86033387.024 7
       287.964  
  20088087.053 7 105563609.959 7      -820.537    22891670.578 7  93737564.277 7
      2002.480  
  23521816.409 7 123607979.515 7       123.756    23521816.409 7  96317906.115 7
        96.433  
  22419092.810 7 117813127.889 7      1889.293    22419092.810 7  91802437.316 7
      1472.176  
  21010231.807 7 110409513.347 7       369.554    21569908.457 7  88325169.347 7
     -2150.131  
  21569908.457 7 113350633.996 7     -2759.334    20698704.702 7  84757735.606 7
       442.564  
 24 01 02 10 00 37.8000000  0  7G32G23G18G27G10G24G15
  22891621.677 7 120296283.847 7      2569.637    20088102.668 7  82257422.349 7
      -639.403  
  20698693.894 7 108772370.567 7       567.918    21010224.773 7  86033358.223 7
       288.046  
  20088102.668 7 105563692.015 7      -820.567    22891621.677 7  93737364.037 7
      2002.314  
  23521814.057 7 123607967.153 7       123.472    23521814.057 7  96317896.483 7
        96.212  
  22419056.859 7 117812938.968 7      1889.108    22419056.859 7  91802290.105 7
      1472.033  
  21010224.773 7 110409476.386 7       369.660    21569960.964 7  88325384.356 7
     -2150.042  
  21569960.964 7 113350909.923 7     -2759.221    20698693.894 7  84757691.351 7
       442.533  
 24 01 02 10 00 37.9000000  0  7G32G23G18G27G10G24G15
  22891572.781 7 120296026.894 7      2569.426    20088118.283 7  82257486.290 7
      -639.427  
  20698683.088 7 108772313.778 7       567.878    21010217.738 7  86033329.414 7
       288.127  
  20088118.283 7 105563774.073 7      -820.598    22891572.781 7  93737163.814 7
      2002.150  
  23521811.710 7 123607954.820 7       123.189    23521811.710 7  96317886.873 7
        95.991  
  22419020.913 7 117812750.067 7      1888.925    22419020.913 7  91802142.909 7
      1471.890  
  21010217.738 7 110409439.415 7       369.764    21570013.470 7  88325599.356 7
     -2149.955  
  21570013.470 7 113351185.840 7     -2759.109    20698683.088 7  84757647.099 7
       442.503  
 24 01 02 10 00 38.0000000  0  7G32G23G18G27G10G24G15
  22891523.888 7 120295769.962 7      2569.217    20088133.899 7  82257550.234 7
      -639.451  
  20698672.282 7 108772256.992 7       567.839    21010210.701 7  86033300.598 7
       288.208  
  20088133.899 7 105563856.134 7      -820.629    22891523.888 7  93736963.607 7
      2001.987  
  23521809.368 7 123607942.515 7       122.908    23521809.368 7  96317877.285 7
        95.772  
  22418984.969 7 117812561.183 7      1888.744    22418984.969 7  91801995.727 7
      1471.748  
  21010210.701 7 110409402.434 7       369.866    21570065.973 7  88325814.347 7
     -2149.868  
  21570065.973 7 113351461.745 7     -2758.997    20698672.282 7  84757602.851 7
       442.472  
 24 01 02 10 00 38.1000000  0  7G32G23G18G27G10G24G15
  22891475.000 7 120295513.051 7      2569.008    20088149.515 7  82257614.181 7
      -639.476  
  20698661.476 7 108772200.210 7       567.800    21010203.661 7  86033271.773 7
       288.287  
  20088149.515 7 105563938.199 7      -820.660    22891475.000 7  93736763.416 7
      2001.825  
  23521807.032 7 123607930.238 7       122.629    23521807.032 7  96317867.718 7
        95.555  
  22418949.029 7 117812372.318 7      1888.563    22418949.029 7  91801848.559 7
      1471.608  
  21010203.661 7 110409365.442 7       369.968    21570118.473 7  88326029.329 7
     -2149.782  
  21570118.473 7 113351737.639 7     -2758.887    20698661.476 7  84757558.605 7
       442.441  
 24 01 02 10 00 38.2000000  0  7G32G23G18G27G10G24G15
  22891426.115 7 120295256.161 7      2568.801    20088165.132 7  82257678.129 7
      -639.500  
  20698650.672 7 108772143.432 7       567.760    21010196.620 7  86033242.940 7
       288.365  
  20088165.132 7 105564020.266 7      -820.692    22891426.115 7  93736563.242 7
      2001.663  
  23521804.701 7 123607917.990 7       122.351    23521804.701 7  96317858.174 7
        95.338  
  22418913.093 7 117812183.471 7      1888.384    22418913.093 7  91801701.406 7
      1471.468  
  21010196.620 7 110409328.440 7       370.068    21570170.972 7  88326244.303 7
     -2149.697  
  21570170.972 7 113352013.522 7     -2758.777    20698650.672 7  84757514.362 7
       442.411  
 24 01 02 10 00 38.3000000  0  7G32G23G18G27G10G24G15
  22891377.234 7 120294999.291 7      2568.596    20088180.749 7  82257742.081 7
      -639.525  
  20698639.868 7 108772086.658 7       567.721    21010189.577 7  86033214.100 7
       288.442  
  20088180.749 7 105564102.337 7      -820.723    22891377.234 7  93736363.084 7
      2001.503  
  23521802.376 7 123607905.768 7       122.074    23521802.376 7  96317848.651 7
        95.123  
  22418877.160 7 117811994.641 7      1888.206    22418877.160 7  91801554.266 7
      1471.329  
  21010189.577 7 110409291.428 7       370.167    21570223.469 7  88326459.269 7
     -2149.612  
  21570223.469 7 113352289.395 7     -2758.669    20698639.868 7  84757470.123 7
       442.380  
 24 01 02 10 00 38.4000000  0  7G32G23G18G27G10G24G15
  22891328.357 7 120294742.441 7      2568.391    20088196.368 7  82257806.034 7
      -639.549  
  20698629.065 7 108772029.888 7       567.683    21010182.532 7  86033185.252 7
       288.518  
  20088196.368 7 105564184.411 7      -820.755    22891328.357 7  93736162.941 7
      2001.344  
  23521800.055 7 123607893.575 7       121.799    23521800.055 7  96317839.149 7
        94.909  
  22418841.230 7 117811805.829 7      1888.029    22418841.230 7  91801407.140 7
      1471.192  
  21010182.532 7 110409254.407 7       370.265    21570275.964 7  88326674.226 7
     -2149.528  
  21570275.964 7 113352565.256 7     -2758.561    20698629.065 7  84757425.886 7
       442.350  
 24 01 02 10 00 38.5000000  0  7G32G23G18G27G10G24G15
  22891279.485 7 120294485.612 7      2568.188    20088211.986 7  82257869.991 7
      -639.574  
  20698618.263 7 108771973.121 7       567.644    21010175.485 7  86033156.396 7
       288.593  
  20088211.986 7 105564266.488 7      -820.787    22891279.485 7  93735962.815 7
      2001.186  
  23521797.740 7 123607881.408 7       121.526    23521797.740 7  96317829.669 7
        94.696  
  22418805.304 7 117811617.035 7      1887.854    22418805.304 7  91801260.027 7
      1471.055  
  21010175.485 7 110409217.375 7       370.361    21570328.456 7  88326889.174 7
     -2149.445  
  21570328.456 7 113352841.107 7     -2758.454    20698618.263 7  84757381.653 7
       442.320  
 24 01 02 10 00 38.6000000  0  7G32G23G18G27G10G24G15
  22891230.615 7 120294228.804 7      2567.986    20088227.606 7  82257933.949 7
      -639.599  
  20698607.461 7 108771916.359 7       567.606    21010168.437 7  86033127.533 7
       288.668  
  20088227.606 7 105564348.568 7      -820.819    22891230.615 7  93735762.704 7
      2001.028  
  23521795.430 7 123607869.269 7       121.255    23521795.430 7  96317820.210 7
        94.484  
  22418769.381 7 117811428.259 7      1887.680    22418769.381 7  91801112.929 7
      1470.919  
  21010168.437 7 110409180.334 7       370.457    21570380.947 7  88327104.115 7
     -2149.362  
  21570380.947 7 113353116.947 7     -2758.348    20698607.461 7  84757337.422 7
       442.290  
 24 01 02 10 00 38.7000000  0  7G32G23G18G27G10G24G15
  22891181.750 7 120293972.015 7      2567.786    20088243.226 7  82257997.911 7
      -639.625  
  20698596.660 7 108771859.600 7       567.567    21010161.386 7  86033098.663 7
       288.741  
  20088243.226 7 105564430.652 7      -820.852    22891181.750 7  93735562.609 7
      2000.872  
  23521793.125 7 123607857.157 7       120.984    23521793.125 7  96317810.772 7
        94.273  
  22418733.461 7 117811239.499 7      1887.507    22418733.461 7  91800965.844 7
      1470.784  
  21010161.386 7 110409143.284 7       370.551    21570433.436 7  88327319.047 7
     -2149.281  
  21570433.436 7 113353392.777 7     -2758.243    20698596.660 7  84757293.195 7
       442.260  
 24 01 02 10 00 38.8000000  0  7G32G23G18G27G10G24G15
  22891132.889 7 120293715.246 7      2567.586    20088258.846 7  82258061.874 7
      -639.650  
  20698585.860 7 108771802.845 7       567.529    21010154.334 7  86033069.785 7
       288.813  
  20088258.846 7 105564512.739 7      -820.884    22891132.889 7  93735362.530 7
      2000.717  
  23521790.826 7 123607845.073 7       120.716    23521790.826 7  96317801.355 7
        94.064  
  22418697.545 7 117811050.757 7      1887.335    22418697.545 7  91800818.772 7
      1470.651  
  21010154.334 7 110409106.224 7       370.644    21570485.922 7  88327533.971 7
     -2149.200  
  21570485.922 7 113353668.596 7     -2758.139    20698585.860 7  84757248.970 7
       442.230  
 24 01 02 10 00 38.9000000  0  7G32G23G18G27G10G24G15
  22891084.031 7 120293458.498 7      2567.388    20088274.467 7  82258125.841 7
      -639.676  
  20698575.061 7 108771746.094 7       567.491    21010147.280 7  86033040.900 7
       288.885  
  20088274.467 7 105564594.829 7      -820.917    22891084.031 7  93735162.466 7
      2000.562  
  23521788.531 7 123607833.014 7       120.448    23521788.531 7  96317791.959 7
        93.856  
  22418661.632 7 117810862.032 7      1887.164    22418661.632 7  91800671.713 7
      1470.518  
  21010147.280 7 110409069.155 7       370.736    21570538.407 7  88327748.887 7
     -2149.119  
  21570538.407 7 113353944.405 7     -2758.036    20698575.061 7  84757204.749 7
       442.201  
 24 01 02 10 00 39.0000000  0  7G32G23G18G27G10G24G15
  22891035.177 7 120293201.769 7      2567.191    20088290.089 7  82258189.809 7
      -639.701  
  20698564.262 7 108771689.347 7       567.453    21010140.224 7  86033012.008 7
       288.956  
  20088290.089 7 105564676.922 7      -820.950    22891035.177 7  93734962.417 7
      2000.409  
  23521786.241 7 123607820.983 7       120.183    23521786.241 7  96317782.584 7
        93.649  
  22418625.722 7 117810673.324 7      1886.995    22418625.722 7  91800524.668 7
      1470.386  
  21010140.224 7 110409032.077 7       370.826    21570590.890 7  88327963.795 7
     -2149.040  
  21570590.890 7 113354220.203 7     -2757.934    20698564.262 7  84757160.530 7
       442.171  
 24 01 02 10 00 39.1000000  0  7G32G23G18G27G10G24G15
  22890986.327 7 120292945.059 7      2566.996    20088305.712 7  82258253.781 7
      -639.727  
  20698553.464 7 108771632.604 7       567.415    21010133.167 7  86032983.109 7
       289.025  
  20088305.712 7 105564759.019 7      -820.983    22890986.327 7  93734762.384 7
      2000.256  
  23521783.957 7 123607808.978 7       119.918    23521783.957 7  96317773.229 7
        93.443  
  22418589.815 7 117810484.633 7      1886.827    22418589.815 7  91800377.636 7
      1470.255  
  21010133.167 7 110408994.990 7       370.916    21570643.370 7  88328178.695 7
     -2148.961  
  21570643.370 7 113354495.992 7     -2757.833    20698553.464 7  84757116.315 7
       442.142  
 24 01 02 10 00 39.2000000  0  7G32G23G18G27G10G24G15
  22890937.481 7 120292688.370 7      2566.801    20088321.335 7  82258317.755 7
      -639.753  
  20698542.667 7 108771575.864 7       567.378    21010126.108 7  86032954.203 7
       289.094  
  20088321.335 7 105564841.119 7      -821.017    22890937.481 7  93734562.366 7
      2000.105  
  23521781.677 7 123607796.999 7       119.656    23521781.677 7  96317763.895 7
        93.238  
  22418553.911 7 117810295.959 7      1886.660    22418553.911 7  91800230.617 7
      1470.125  
  21010126.108 7 110408957.894 7       371.004    21570695.849 7  88328393.587 7
     -2148.882  
  21570695.849 7 113354771.770 7     -2757.732    20698542.667 7  84757072.102 7
       442.113  
 24 01 02 10 00 39.3000000  0  7G32G23G18G27G10G24G15
  22890888.638 7 120292431.699 7      2566.608    20088336.959 7  82258381.731 7
      -639.779  
  20698531.871 7 108771519.128 7       567.340    21010119.047 7  86032925.290 7
       289.162  
  20088336.959 7 105564923.222 7      -821.050    22890888.638 7  93734362.363 7
      1999.954  
  23521779.403 7 123607785.047 7       119.394    23521779.403 7  96317754.582 7
        93.034  
  22418518.011 7 117810107.301 7      1886.494    22418518.011 7  91800083.611 7
      1469.995  
  21010119.047 7 110408920.789 7       371.091    21570748.326 7  88328608.471 7
     -2148.805  
  21570748.326 7 113355047.538 7     -2757.633    20698531.871 7  84757027.892 7
       442.084  
 24 01 02 10 00 39.4000000  0  7G32G23G18G27G10G24G15
  22890839.799 7 120292175.048 7      2566.415    20088352.583 7  82258445.711 7
      -639.806  
  20698521.075 7 108771462.396 7       567.303    21010111.984 7  86032896.371 7
       289.229  
  20088352.583 7 105565005.329 7      -821.084    22890839.799 7  93734162.375 7
      1999.804  
  23521777.133 7 123607773.120 7       119.134    23521777.133 7  96317745.288 7
        92.832  
  22418482.114 7 117809918.660 7      1886.330    22418482.114 7  91799936.618 7
      1469.867  
  21010111.984 7 110408883.676 7       371.178    21570800.801 7  88328823.348 7
     -2148.728  
  21570800.801 7 113355323.296 7     -2757.534    20698521.075 7  84756983.685 7
       442.054  
 24 01 02 10 00 39.5000000  0  7G32G23G18G27G10G24G15
  22890790.963 7 120291918.416 7      2566.224    20088368.208 7  82258509.693 7
      -639.832  
  20698510.280 7 108771405.667 7       567.266    21010104.920 7  86032867.445 7
       289.295  
  20088368.208 7 105565087.439 7      -821.118    22890790.963 7  93733962.402 7
      1999.655  
  23521774.869 7 123607761.220 7       118.876    23521774.869 7  96317736.015 7
        92.630  
  22418446.220 7 117809730.035 7      1886.166    22418446.220 7  91799789.638 7
      1469.740  
  21010104.920 7 110408846.554 7       371.262    21570853.274 7  88329038.217 7
     -2148.651  
  21570853.274 7 113355599.045 7     -2757.436    20698510.280 7  84756939.481 7
       442.026  
 24 01 02 10 00 39.6000000  0  7G32G23G18G27G10G24G15
  22890742.132 7 120291661.803 7      2566.034    20088383.834 7  82258573.677 7
      -639.859  
  20698499.486 7 108771348.943 7       567.229    21010097.854 7  86032838.512 7
       289.361  
  20088383.834 7 105565169.552 7      -821.152    22890742.132 7  93733762.444 7
      1999.507  
  23521772.609 7 123607749.345 7       118.619    23521772.609 7  96317726.762 7
        92.430  
  22418410.329 7 117809541.427 7      1886.004    22418410.329 7  91799642.670 7
      1469.613  
  21010097.854 7 110408809.423 7       371.346    21570905.746 7  88329253.078 7
     -2148.576  
  21570905.746 7 113355874.784 7     -2757.339    20698499.486 7  84756895.280 7
       441.997  
 24 01 02 10 00 39.7000000  0  7G32G23G18G27G10G24G15
  22890693.303 7 120291405.209 7      2565.846    20088399.460 7  82258637.664 7
      -639.885  
  20698488.692 7 108771292.222 7       567.192    21010090.787 7  86032809.572 7
       289.425  
  20088399.460 7 105565251.669 7      -821.186    22890693.303 7  93733562.501 7
      1999.360  
  23521770.354 7 123607737.496 7       118.363    23521770.354 7  96317717.529 7
        92.231  
  22418374.441 7 117809352.834 7      1885.843    22418374.441 7  91799495.715 7
      1469.488  
  21010090.787 7 110408772.285 7       371.429    21570958.215 7  88329467.932 7
     -2148.501  
  21570958.215 7 113356150.513 7     -2757.243    20698488.692 7  84756851.082 7
       441.968  
 24 01 02 10 00 39.8000000  0  7G32G23G18G27G10G24G15
  22890644.479 7 120291148.634 7      2565.658    20088415.087 7  82258701.654 7
      -639.912  
  20698477.899 7 108771235.504 7       567.156    21010083.718 7  86032780.627 7
       289.489  
  20088415.087 7 105565333.789 7      -821.221    22890644.479 7  93733362.572 7
      1999.214  
  23521768.104 7 123607725.672 7       118.109    23521768.104 7  96317708.316 7
        92.033  
  22418338.556 7 117809164.258 7      1885.683    22418338.556 7  91799348.773 7
      1469.363  
  21010083.718 7 110408735.138 7       371.511    21571010.683 7  88329682.778 7
     -2148.426  
  21571010.683 7 113356426.232 7     -2757.147    20698477.899 7  84756806.886 7
       441.939  
 24 01 02 10 00 39.9000000  0  7G32G23G18G27G10G24G15
  22890595.658 7 120290892.078 7      2565.472    20088430.715 7  82258765.647 7
      -639.939  
  20698467.107 7 108771178.790 7       567.119    21010076.648 7  86032751.675 7
       289.552  
  20088430.715 7 105565415.913 7      -821.255    22890595.658 7  93733162.658 7
      1999.069  
  23521765.859 7 123607713.874 7       117.856    23521765.859 7  96317699.123 7
        91.836  
  22418302.674 7 117808975.698 7      1885.524    22418302.674 7  91799201.843 7
      1469.239  
  21010076.648 7 110408697.983 7       371.591    21571063.149 7  88329897.617 7
     -2148.353  
  21571063.149 7 113356701.942 7     -2757.053    20698467.107 7  84756762.694 7
       441.911  
 24 01 02 10 00 40.0000000  0  7G32G23G18G27G10G24G15
  22890546.840 7 120290635.540 7      2565.286    20088446.343 7  82258829.642 7
      -639.966  
  20698456.315 7 108771122.080 7       567.083    21010069.576 7  86032722.716 7
       289.613  
  20088446.343 7 105565498.041 7      -821.290    22890546.840 7  93732962.758 7
      1998.924  
  23521763.619 7 123607702.101 7       117.604    23521763.619 7  96317689.949 7
        91.640  
  22418266.795 7 117808787.153 7      1885.366    22418266.795 7  91799054.925 7
      1469.116  
  21010069.576 7 110408660.819 7       371.671    21571115.613 7  88330112.449 7
     -2148.280  
  21571115.613 7 113356977.643 7     -2756.959    20698456.315 7  84756718.504 7
       441.883  
 24 01 02 10 00 40.1000000  0  7G32G23G18G27G10G24G15
  22890498.026 7 120290379.020 7      2565.102    20088461.972 7  82258893.640 7
      -639.994  
  20698445.524 7 108771065.374 7       567.047    21010062.503 7  86032693.752 7
       289.675  
  20088461.972 7 105565580.171 7      -821.325    22890498.026 7  93732762.873 7
      1998.781  
  23521761.383 7 123607690.353 7       117.354    23521761.383 7  96317680.795 7
        91.445  
  22418230.920 7 117808598.625 7      1885.209    22418230.920 7  91798908.019 7
      1468.994  
  21010062.503 7 110408623.648 7       371.749    21571168.075 7  88330327.273 7
     -2148.207  
  21571168.075 7 113357253.334 7     -2756.866    20698445.524 7  84756674.317 7
       441.855  
 24 01 02 10 00 40.2000000  0  7G32G23G18G27G10G24G15
  22890449.216 7 120290122.519 7      2564.919    20088477.602 7  82258957.641 7
      -640.021  
  20698434.734 7 108771008.671 7       567.011    21010055.428 7  86032664.782 7
       289.735  
  20088477.602 7 105565662.306 7      -821.361    22890449.216 7  93732563.002 7
      1998.638  
  23521759.153 7 123607678.630 7       117.105    23521759.153 7  96317671.660 7
        91.251  
  22418195.047 7 117808410.111 7      1885.054    22418195.047 7  91798761.126 7
      1468.873  
  21010055.428 7 110408586.470 7       371.826    21571220.536 7  88330542.090 7
     -2148.135  
  21571220.536 7 113357529.016 7     -2756.774    20698434.734 7  84756630.133 7
       441.826  
 24 01 02 10 00 40.3000000  0  7G32G23G18G27G10G24G15
  22890400.408 7 120289866.036 7      2564.737    20088493.232 7  82259021.644 7
      -640.049  
  20698423.944 7 108770951.972 7       566.975    21010048.351 7  86032635.805 7
       289.794  
  20088493.232 7 105565744.443 7      -821.396    22890400.408 7  93732363.145 7
      1998.496  
  23521756.927 7 123607666.932 7       116.858    23521756.927 7  96317662.544 7
        91.058  
  22418159.177 7 117808221.614 7      1884.899    22418159.177 7  91798614.245 7
      1468.753  
  21010048.351 7 110408549.283 7       371.903    21571272.995 7  88330756.900 7
     -2148.064  
  21571272.995 7 113357804.689 7     -2756.683    20698423.944 7  84756585.952 7
       441.798  
 24 01 02 10 00 40.4000000  0  7G32G23G18G27G10G24G15
  22890351.605 7 120289609.572 7      2564.556    20088508.863 7  82259085.651 7
      -640.077  
  20698413.156 7 108770895.276 7       566.939    21010041.274 7  86032606.823 7
       289.853  
  20088508.863 7 105565826.585 7      -821.432    22890351.605 7  93732163.303 7
      1998.355  
  23521754.705 7 123607655.259 7       116.612    23521754.705 7  96317653.448 7
        90.866  
  22418123.310 7 117808033.132 7      1884.746    22418123.310 7  91798467.375 7
      1468.633  
  21010041.274 7 110408512.089 7       371.978    21571325.452 7  88330971.703 7
     -2147.994  
  21571325.452 7 113358080.353 7     -2756.592    20698413.156 7  84756541.774 7
       441.770  
 24 01 02 10 00 40.5000000  0  7G32G23G18G27G10G24G15
  22890302.805 7 120289353.125 7      2564.376    20088524.494 7  82259149.660 7
      -640.104  
  20698402.368 7 108770838.584 7       566.903    21010034.194 7  86032577.835 7
       289.910  
  20088524.494 7 105565908.730 7      -821.467    22890302.805 7  93731963.474 7
      1998.215  
  23521752.488 7 123607643.610 7       116.367    23521752.488 7  96317644.371 7
        90.676  
  22418087.446 7 117807844.665 7      1884.594    22418087.446 7  91798320.518 7
      1468.514  
  21010034.194 7 110408474.888 7       372.052    21571377.907 7  88331186.499 7
     -2147.924  
  21571377.907 7 113358356.007 7     -2756.502    20698402.368 7  84756497.598 7
       441.743  
 24 01 02 10 00 40.6000000  0  7G32G23G18G27G10G24G15
  22890254.008 7 120289096.696 7      2564.197    20088540.127 7  82259213.671 7
      -640.132  
  20698391.580 7 108770781.896 7       566.868    21010027.114 7  86032548.841 7
       289.967  
  20088540.127 7 105565990.878 7      -821.503    22890254.008 7  93731763.660 7
      1998.076  
  23521750.276 7 123607631.985 7       116.124    23521750.276 7  96317635.313 7
        90.486  
  22418051.585 7 117807656.213 7      1884.442    22418051.585 7  91798173.672 7
      1468.397  
  21010027.114 7 110408437.679 7       372.125    21571430.361 7  88331401.288 7
     -2147.855  
  21571430.361 7 113358631.653 7     -2756.413    20698391.580 7  84756453.425 7
       441.715  
 24 01 02 10 00 40.7000000  0  7G32G23G18G27G10G24G15
  22890205.215 7 120288840.286 7      2564.020    20088555.760 7  82259277.686 7
      -640.160  
  20698380.793 7 108770725.211 7       566.832    21010020.032 7  86032519.841 7
       290.024  
  20088555.760 7 105566073.030 7      -821.539    22890205.215 7  93731563.859 7
      1997.937  
  23521748.069 7 123607620.385 7       115.881    23521748.069 7  96317626.274 7
        90.297  
  22418015.726 7 117807467.776 7      1884.292    22418015.726 7  91798026.839 7
      1468.280  
  21010020.032 7 110408400.463 7       372.197    21571482.813 7  88331616.070 7
     -2147.786  
  21571482.813 7 113358907.290 7     -2756.325    20698380.793 7  84756409.255 7
       441.687  
